name,brand,district,address,longitude,latitude
美宜佳,美宜佳,白云区,环洲二路63号金程广场(沙贝地铁站B口步行220米),113.210003,23.154112
美宜佳,美宜佳,越秀区,洛桑美地西门旁,113.284885,23.121712
美宜佳(光孝路店),美宜佳,越秀区,光塔街道光孝路15号1层(西门口地铁站C口旁),113.25587,23.125866
美宜佳,美宜佳,越秀区,大德路191号,113.260255,23.118097
美宜佳(北京路步行街店),美宜佳,越秀区,大南路66号,113.266412,23.119851
美宜佳,美宜佳,海珠区,南华西大厦东北门旁,113.26128,23.102904
美宜佳,美宜佳,白云区,世康大街90号(三元里地铁站A2口旁),113.257703,23.158128
美宜佳,美宜佳,越秀区,东川大厦西北门旁,113.286182,23.121144
美宜佳(文昌花苑店),美宜佳,荔湾区,文昌南路139号102号首层,113.243989,23.117682
美宜佳(革新路店),美宜佳,海珠区,革新路124号之一至之六首层美宜佳,113.254525,23.087679
美宜佳(革新路店),美宜佳,海珠区,革新路124号,113.25442,23.088514
美宜佳(长寿东路店),美宜佳,荔湾区,光复中路288号(华林寺地铁站B口步行440米),113.251896,23.118094
美宜佳,美宜佳,白云区,松贝街13号,113.218978,23.15163
美宜佳(南泰路店),美宜佳,海珠区,凤阳街道江南大道443号1层-3号,113.279849,23.084268
美宜佳(金祥大厦店),美宜佳,荔湾区,[],113.25114,23.143949
美宜佳,美宜佳,荔湾区,华誉一街与黄沙大道辅路交叉口南220米,113.233242,23.111765
美宜佳(金中大厦店),美宜佳,越秀区,永福路36号,113.300825,23.146225
美宜佳(南天街店),美宜佳,白云区,南天外街1号,113.250304,23.176952
美宜佳(天成路店),美宜佳,越秀区,太平桥1(一德路地铁站B口步行410米),113.255092,23.115361
美宜佳(仓前街店),美宜佳,越秀区,六榕街道百灵路11号之5-6铺(M251),113.258277,23.128663
美宜佳,美宜佳,越秀区,广园东路云泉后街2号104档,113.302614,23.156333
美宜佳(嘉仕花园西区店),美宜佳,海珠区,江怡路338号,113.293203,23.09989
美宜佳(美晨路店),美宜佳,白云区,棠新街2号,113.255828,23.186802
美宜佳(文昌南路店),美宜佳,荔湾区,华林街道文昌南路23号,113.245175,23.114236
美宜佳(海印苑店),美宜佳,越秀区,海印苑东北2门旁(东湖地铁站C口步行460米),113.288878,23.119914
美宜佳(周门街店),美宜佳,荔湾区,彩虹街道石路基61-1号,113.238568,23.126238
美宜佳,美宜佳,荔湾区,葵蓬路149号,113.216442,23.086419
美宜佳(惠福西路店),美宜佳,越秀区,惠福西路5号首层,113.253665,23.121177
美宜佳,美宜佳,白云区,昊璟大厦东南门旁,113.250734,23.170827
美宜佳(恒润广场店),美宜佳,越秀区,恒润广场东2门旁,113.270505,23.122856
美宜佳,美宜佳,白云区,YOUCOIN·未来,113.285958,23.228483
美宜佳(人民北路店),美宜佳,越秀区,流花街道人民北路698号友谊裤都国际服装城1011-1012档,113.257289,23.145504
美宜佳(金荔阁店),美宜佳,荔湾区,芦荻街200号之三M332,113.25113,23.127743
美宜佳(革新路店),美宜佳,海珠区,革新路口16号之一,113.254391,23.090572
美宜佳(南雅苑店),美宜佳,天河区,体育东路20-2号1层A(冼村地铁站B口步行450米),113.328794,23.129073
美宜佳(新虹街店),美宜佳,荔湾区,彩虹街道中山八路209号泊寓(中山八路店),113.23456,23.126698
美宜佳(四季天地店),美宜佳,海珠区,赤岗北路128号(之六),113.327596,23.101129
美宜佳(文昌南路店),美宜佳,荔湾区,文昌南路81号(华林寺地铁站E口步行460米),113.244359,23.115434
美宜佳(东塱大街店),美宜佳,荔湾区,[],113.254038,23.065805
美宜佳,美宜佳,荔湾区,新爵村福禄大街26号,113.252777,23.063743
美宜佳(银兴路店),美宜佳,白云区,京溪街道区犀牛角南门银兴路1号,113.340235,23.190331
美宜佳(南岸路店),美宜佳,荔湾区,南源街道步头直街32号(粤12529),113.232788,23.131608
美宜佳(荔湾路口店),美宜佳,荔湾区,龙津街道荔湾路1号(P098),113.241764,23.124375
美宜佳(西华苑店),美宜佳,荔湾区,彩虹街道西华路62号(彩虹桥地铁站D口步行190米),113.243429,23.133785
美宜佳(天一酒店店),美宜佳,海珠区,同福东路628号(市二宫地铁站D口步行90米),113.269144,23.10591
美宜佳(泽德店),美宜佳,白云区,同德街道泽德北四街1号,113.240625,23.17719
美宜佳(中山七路店),美宜佳,荔湾区,长庚小巷5号对面锦龙社区,113.248226,23.125238
美宜佳(金碧新城店),美宜佳,白云区,石井街道石槎路1051号金碧新城(小坪地铁站E口旁),113.24262,23.201472
美宜佳(新虹街店),美宜佳,荔湾区,中山八路中山八铁路边顺景楼,113.233817,23.128557
美宜佳(省站地铁口店),美宜佳,越秀区,环市西路147号,113.252331,23.147894
美宜佳(周门路店),美宜佳,荔湾区,周门路11号,113.240258,23.131998
美宜佳(时光大厦店),美宜佳,越秀区,越秀南东沙角路25号,113.279469,23.116836
美宜佳(星域广场店),美宜佳,荔湾区,康王北路1075号星域广场,113.247201,23.130067
美宜佳(横沙大街店),美宜佳,白云区,横沙大街167号平乐二十三巷路口,113.20907,23.159523
美宜佳(龙津华府店),美宜佳,荔湾区,龙津西路282号,113.240725,23.123375
美宜佳(金碧花园店),美宜佳,海珠区,金鹏路53号(工业大道南地铁站C口步行80米),113.288797,23.068143
美宜佳(富力广场店),美宜佳,荔湾区,中山八路石路基12号隔壁美宜佳,113.239408,23.126009
美宜佳(碧雅苑店),美宜佳,海珠区,碧雅苑西南1门旁,113.270517,23.092318
美宜佳,美宜佳,荔湾区,浣花路辅路与浣南东街交叉口西南120米,113.229669,23.082536
美宜佳(永发店),美宜佳,白云区,三元里街道抗英大街29号,113.261682,23.156603
美宜佳(嘉星广场店),美宜佳,越秀区,白云路22号嘉星广场F1层,113.283204,23.117825
美宜佳(恒福路辅路店),美宜佳,越秀区,恒福路80号之1号,113.285703,23.143604
美宜佳(益园店),美宜佳,荔湾区,广州荔湾区岭南亍道杉木栏路75号一栋第五间高铺,113.248612,23.110421
美宜佳(西湾路店),美宜佳,荔湾区,西湾路141号,113.241718,23.148146
美宜佳(基立南街店),美宜佳,海珠区,前进路基立南街11-13号1层,113.27513,23.102916
美宜佳(松柏西街店),美宜佳,白云区,景泰街道松柏西街33巷15号,113.264406,23.162303
美宜佳,美宜佳,海珠区,赤沙南约新街10号,113.355213,23.086197
美宜佳,美宜佳,白云区,鹤龙一路777号通宇中心(鹤龙地铁站C口步行90米),113.27143,23.22349
美宜佳(赤岗东路店),美宜佳,海珠区,怡雅居西1门旁,113.329926,23.088411
美宜佳(新市新街店),美宜佳,白云区,机场路1171号(新市墟地铁站H口步行440米),113.261275,23.191225
美宜佳(万科·金域华庭店),美宜佳,海珠区,同福西路209号之九101房,113.253471,23.102891
美宜佳(紫山大街店),美宜佳,海珠区,江南西路60-72号润汇大厦3号,113.269208,23.095449
美宜佳(培英店),美宜佳,荔湾区,白鹤洞街鹤洞路126号之一,113.242903,23.074352
美宜佳(新碧街店),美宜佳,白云区,升平前街5号,113.240853,23.206116
美宜佳(敦和路店),美宜佳,海珠区,红卫村敦和路107号,113.321282,23.08578
美宜佳(尚雅小区店),美宜佳,天河区,黄埔大道西249号1层101号,113.330571,23.12741
美宜佳(鲜食店),美宜佳,天河区,猎德街道华强路2号(杨箕东地铁站C1口步行190米),113.316775,23.125425
美宜佳(时代商业中心店),美宜佳,白云区,棠景路181号韩汇里1层,113.256724,23.17297
美宜佳(南云西街店),美宜佳,白云区,南云西街与机场路交叉口西南20米,113.25938,23.175686
美宜佳(粤城汇店),美宜佳,白云区,[],113.2653,23.189885
美宜佳(花城广场店),美宜佳,天河区,星汇园北门旁(珠江新城地铁站A1口步行450米),113.320106,23.123481
美宜佳(岗贝路店),美宜佳,白云区,岗贝路12号美宜佳,113.254066,23.179486
美宜佳(石牌西路店),美宜佳,天河区,逢源大街44号,113.338723,23.130753
美宜佳(马涌直街店),美宜佳,海珠区,怡雅苑东北门旁,113.262129,23.095976
美宜佳(瑶池大街店),美宜佳,越秀区,广花二路瑶华中街90号(三元里地铁站D口步行480米),113.253272,23.159997
美宜佳(同庆店),美宜佳,白云区,石井街道红星翠竹街1号,113.233955,23.223467
美宜佳,美宜佳,海珠区,石溪涌边街27号之一,113.278964,23.067376
美宜佳(江畔华庭店),美宜佳,海珠区,玉菡路6号,113.314993,23.104179
美宜佳(包海百货店),美宜佳,荔湾区,南岸路23号金众西关海,113.229348,23.129681
美宜佳(宝轩楼店),美宜佳,海珠区,紫光苑西南门旁,113.26863,23.09786
美宜佳(金碧翡翠华庭店),美宜佳,天河区,天润路467-4号(龙口西地铁站C口步行370米),113.34154,23.143365
美宜佳(尚塬颐都汇店),美宜佳,天河区,尚塬颐都汇西南门旁,113.302786,23.149328
美宜佳(世联金沙里店),美宜佳,白云区,沙凤二路世德街金沙里广场4,113.206041,23.150544
美宜佳(耳总店),美宜佳,天河区,棠下梅园新村六巷7-2号,113.378961,23.132757
美宜佳(维家思广场店),美宜佳,天河区,黄埔大道西188号维家思广场(冼村地铁站G口旁),113.327625,23.125325
美宜佳(豪居大街店),美宜佳,天河区,豪居大街,113.341165,23.12784
美宜佳(明怡居店),美宜佳,海珠区,敦和路145号,113.313825,23.090625
美宜佳(星曜街店),美宜佳,海珠区,星汇海珠湾C5栋69号,113.266081,23.071936
美宜佳(金碧新城店),美宜佳,白云区,金碧西路金碧新城二街131号,113.241561,23.20352
美宜佳(朝阳莘丰路店),美宜佳,白云区,石门街道亭石南路72号,113.20786,23.214617
美宜佳(北太路店),美宜佳,白云区,北太路2号,113.299322,23.294959
美宜佳(荔丰花园店),美宜佳,荔湾区,丰年路8号,113.228716,23.096038
美宜佳,美宜佳,白云区,龙归城南区东门旁(夏良地铁站D口步行390米),113.320614,23.276747
美宜佳(红星路店),美宜佳,白云区,石井街道红星路26号,113.223698,23.218047
美宜佳(天河双鹏便利店),美宜佳,天河区,广利路东洲大厦B座南侧,113.319834,23.130156
美宜佳(欢乐北路店),美宜佳,番禺区,南大路158号,113.332049,23.009971
美宜佳(广纸路店),美宜佳,海珠区,工业大道中354号E748(燕岗地铁站B口步行60米),113.271904,23.07499
美宜佳(岗贝路店),美宜佳,白云区,岗贝路40号,113.258349,23.179975
美宜佳(江泰路店),美宜佳,海珠区,江泰路51号润泰商业中心F1层,113.28337,23.082662
美宜佳(永康路店),美宜佳,白云区,永康路23号(永泰地铁站B2口步行320米),113.303992,23.221359
美宜佳(综合市场店),美宜佳,白云区,鹤龙四路148号(龙归地铁站A口步行60米),113.301142,23.28892
美宜佳(庆丰庆新路店),美宜佳,白云区,石井庆丰庆新路24号,113.232845,23.207307
美宜佳(天銮店),美宜佳,天河区,保利中达广场兴安路15号,113.329466,23.115498
美宜佳(四横路中店),美宜佳,天河区,员村四横路6号,113.370829,23.11809
美宜佳(西周街店),美宜佳,白云区,鹤北村西周街42号,113.265648,23.220762
美宜佳(华新·智汇+店),美宜佳,番禺区,汇智二路226号,113.352109,23.008873
美宜佳(丽影广场店),美宜佳,海珠区,新港中路352丽影广场F1层,113.318725,23.095882
美宜佳(金域蓝湾店),美宜佳,白云区,安宁街2号(横沙地铁站A口步行310米),113.208545,23.155909
美宜佳(广海花园店),美宜佳,天河区,科韵路4之一地层自编101铺,113.373879,23.126433
美宜佳(南洲北路店),美宜佳,海珠区,万华花园6号门旁,113.300688,23.071084
美宜佳(中海花湾二店),美宜佳,荔湾区,锦佳一街1号103,113.237158,23.06849
美宜佳(星光广场店),美宜佳,白云区,红星工业路与红星创兴路交叉口东南180米,113.232225,23.213175
美宜佳(保利百合花园店),美宜佳,海珠区,江燕南路58号,113.276124,23.072433
美宜佳(白云尚城店),美宜佳,白云区,黄石街道尚城大街87号(江夏地铁站D口步行440米),113.28512,23.213507
美宜佳(丰荟店),美宜佳,白云区,石沙路163号1层127号(石井地铁站D口步行90米),113.232325,23.211025
美宜佳(磨溪小区店),美宜佳,白云区,同泰路一街251号首层,113.30011,23.221214
美宜佳(安华产业园店),美宜佳,荔湾区,罗冲岗3号(西塱地铁站F口步行340米),113.23494,23.069161
美宜佳(建设大厦店),美宜佳,天河区,建设大厦东南门旁(燕塘地铁站C口步行380米),113.330069,23.162105
美宜佳(沙凤一路店),美宜佳,白云区,富力金街28号南区对面,113.200266,23.149033
美宜佳(绿地·滨江汇店),美宜佳,海珠区,石岗路21号绿地·滨江汇F1层,113.273367,23.06578
美宜佳(珠江金茂府店),美宜佳,荔湾区,鹤洞路157号,113.247059,23.070962
美宜佳(厦滘南路店),美宜佳,番禺区,信基启梦创业广场北门东70米,113.320136,23.038608
美宜佳(马务联和东街店),美宜佳,白云区,马务联和东街4号,113.263184,23.207694
美宜佳(迎龙路店),美宜佳,天河区,龙洞迎龙路162号,113.364682,23.195219
美宜佳(新市店),美宜佳,白云区,萧岗礼堂南街27号首层,113.265427,23.186393
美宜佳(建华路店),美宜佳,番禺区,大石大涌路78号,113.315572,23.022205
美宜佳(迎龙路店),美宜佳,天河区,龙洞西街珠雅坊65号,113.364859,23.198045
美宜佳,美宜佳,天河区,车陂三槐里大街2号,113.399452,23.12074
美宜佳(泰安北路店),美宜佳,天河区,棠东毓桂大街4号(棠东地铁站A口步行240米),113.38742,23.130766
美宜佳(石握路店),美宜佳,白云区,同和街道石握路32号(同和地铁站A口步行370米),113.322983,23.195994
美宜佳(23305店),美宜佳,白云区,北中路1号强盛商务大厦F1层,113.280028,23.21189
美宜佳(车站路店),美宜佳,天河区,车站路21号,113.369566,23.136666
美宜佳(红星路店),美宜佳,白云区,石井镇红星村红星路4号,113.22262,23.217213
美宜佳(粤20610店),美宜佳,番禺区,龙山大道44号,113.341662,23.01635
美宜佳(京溪中路店),美宜佳,白云区,京溪街道广州大道北京溪中路2号美宜佳,113.327654,23.181907
美宜佳(志龙分店),美宜佳,天河区,黄埔大道西凯利广场102首层自编1号,113.35086,23.124578
美宜佳(南漖文明街店),美宜佳,荔湾区,环翠南路68号,113.246575,23.050125
美宜佳(金碧西路店),美宜佳,白云区,金碧西路与新碧街交叉口西北20米,113.240848,23.206169
美宜佳(逸景路店),美宜佳,海珠区,海珠米立方A座南侧50米,113.311731,23.082924
美宜佳(中海观澜花园店),美宜佳,海珠区,中海·观澜府,113.287647,23.059084
美宜佳(庆丰广场六街店),美宜佳,白云区,石井庆丰广场7街1号5楼,113.224928,23.212457
美宜佳(红星刘前大街店),美宜佳,白云区,红星刘前大街与红星文昌街交叉口东40米,113.230168,23.217515
美宜佳(红星亭岗街店),美宜佳,白云区,石门街道红星亭岗街40号,113.227694,23.217086
美宜佳(旭兴楼店),美宜佳,白云区,元下田一路5号旭兴楼102铺,113.299698,23.215047
美宜佳(广州白天鹅花园店),美宜佳,白云区,麒麟路69号,113.338556,23.186337
美宜佳(蟹石路店),美宜佳,白云区,同和握山村石握路32号美宜佳楼上,113.32525,23.194408
美宜佳(启德楼店),美宜佳,白云区,黄边北路11号,113.276099,23.226317
美宜佳(新庄店),美宜佳,白云区,同新路22号,113.33455,23.226923
美宜佳(上社口岗新大街店),美宜佳,天河区,棠下上社东升大街10号,113.372225,23.136148
美宜佳,美宜佳,白云区,嘉禾街道下新村街62号,113.293476,23.251873
美宜佳(握山东街店),美宜佳,白云区,握山中路81号,113.321926,23.197551
美宜佳(金碧世纪店),美宜佳,黄埔区,世纪南二街5号,113.428143,23.11363
美宜佳(金瓯大道店),美宜佳,番禺区,南村镇金瓯大道2号,113.371621,23.020045
美宜佳(浦华路店),美宜佳,番禺区,浦华路与南桂路交叉口西南120米,113.291152,23.029338
美宜佳(汇景店),美宜佳,天河区,五山街佳佰汇科创园门口侧,113.362803,23.149181
美宜佳(庆丰三路店),美宜佳,白云区,石井街庆丰三路78号B栋写字楼1层101-103室,113.22088,23.215027
美宜佳(暄悦西街店),美宜佳,海珠区,喧悦西街8号1089铺(万胜围地铁站D口步行190米),113.384304,23.100068
美宜佳(健康城店),美宜佳,番禺区,大石街105国道大石段595号健康诚首层2号,113.311513,23.009358
美宜佳(绿地中央广场店),美宜佳,黄埔区,神舟路广州绿地中央广场,113.428151,23.16256
美宜佳(上城店),美宜佳,番禺区,上城国际2期美宜佳,113.350579,23.001443
美宜佳(大朗中路店),美宜佳,白云区,[],113.243296,23.239046
美宜佳,美宜佳,黄埔区,华光路与玉树路交叉口西200米,113.441625,23.160875
美宜佳(太和中路店),美宜佳,白云区,太和中路118号,113.35646,23.292431
美宜佳(南大路店),美宜佳,番禺区,大石街南大路140号之109号,113.327725,23.010175
美宜佳(新石路店),美宜佳,白云区,均禾大道清湖段,113.274672,23.256815
美宜佳(金科广场店),美宜佳,番禺区,工业二路4号,113.325398,23.009713
美宜佳(康体路店),美宜佳,天河区,黄村康体路中海康城花园(黄村地铁站A口步行180米),113.404533,23.133368
美宜佳(善庆邨店),美宜佳,天河区,棠下街道涌东路20号,113.37787,23.128778
美宜佳(文昌园店),美宜佳,天河区,棠下涌边路33号11铺,113.377327,23.125067
美宜佳(32133店),美宜佳,番禺区,南里路35号,113.3717,22.991783
美宜佳(南大路店),美宜佳,番禺区,敏捷华美国际敏昌街137号美宜佳,113.326636,23.009548
美宜佳(爱民路店),美宜佳,番禺区,爱民路6号,113.382906,22.984752
美宜佳(信华路店),美宜佳,黄埔区,信华路153号(双沙地铁站D口步行200米),113.48269,23.096921
美宜佳(天健上城店),美宜佳,天河区,车陂街道天建上城1栋首层12号铺(E301),113.39489,23.13974
美宜佳(迎龙路店),美宜佳,天河区,龙洞西街珠雅里三巷1号101铺,113.365059,23.200108
美宜佳(会江店),美宜佳,番禺区,会江村东冯路江丽八街14号,113.294748,23.011016
美宜佳(华南店),美宜佳,番禺区,南大路168号华南新城,113.350983,23.025331
美宜佳(黄庄北路店),美宜佳,白云区,文盛商业大厦正门旁,113.34692,23.241055
美宜佳(福宁园店),美宜佳,番禺区,朝阳东路201号,113.316595,23.026907
美宜佳(塘石一街店),美宜佳,天河区,广汕二路151号高塘石综合市场,113.417714,23.19148
美宜佳(汉溪路店),美宜佳,番禺区,钟村街汉溪村汉溪路26巷2号,113.327467,22.991071
美宜佳,美宜佳,白云区,南村高路大巷与石地中街交叉口北20米,113.297396,23.284009
美宜佳(江同路永发店),美宜佳,白云区,江高镇江同路6号,113.234607,23.273215
美宜佳(泰来里店),美宜佳,海珠区,琶洲街道泰来里大街6巷1号,113.393003,23.093152
美宜佳(星力一街店),美宜佳,番禺区,桥南街道龙美村1巷20号,113.37192,22.968503
美宜佳(园南街店),美宜佳,番禺区,罗家路77号,113.387286,22.942889
美宜佳,美宜佳,黄埔区,黄埔东路3673号,113.540868,23.095458
美宜佳(钟灵北路店),美宜佳,番禺区,顺景苑(毓秀路)附近,113.315684,22.977532
美宜佳(华美路店),美宜佳,天河区,华美路新欧南街1号之2号,113.387016,23.192645
美宜佳(健明五路店),美宜佳,天河区,健明五路金地峯睿,113.391808,23.135921
美宜佳(广连高速店),美宜佳,白云区,北村西街17号,113.299449,23.297096
美宜佳(钟韵路辅路店),美宜佳,番禺区,钟屏岔道5号,113.313316,22.967846
美宜佳(校前街店),美宜佳,番禺区,祥和路8-之3号,113.318032,23.023297
美宜佳(通用店),美宜佳,番禺区,富石路11号,113.31128,23.028217
美宜佳(小洲东路口店),美宜佳,海珠区,瀛洲路瀛南大街18号,113.357568,23.057273
美宜佳(沙滘东路店),美宜佳,番禺区,洛浦街道沙窖东路23号,113.330958,23.040654
美宜佳(润和楼店),美宜佳,天河区,行云街旱塘尾1号润和楼,113.378746,23.166319
美宜佳(集贤苑店),美宜佳,白云区,百顺南路230号119铺,113.299738,23.234349
美宜佳(奥园城市天地店),美宜佳,番禺区,汉兴五街1号,113.335361,22.990472
美宜佳(蛟腾路二巷店),美宜佳,白云区,永平街平中社区蛟腾街一巷3号,113.31899,23.250885
美宜佳(广地花园店),美宜佳,番禺区,广地花园E3栋18号1层,113.337128,23.020741
美宜佳(富力·天朗明居店),美宜佳,天河区,天朗路273号,113.391425,23.126956
美宜佳(建丽楼店),美宜佳,番禺区,大石街道北联村新联路17号,113.310541,23.027767
美宜佳(汇和天地店),美宜佳,白云区,望岗工业二路26号,113.280638,23.241142
美宜佳(新华路店),美宜佳,花都区,[],113.209877,23.37323
美宜佳(清河大街店),美宜佳,番禺区,市桥街道龙美村清河大街2号102(粤11275),113.371511,22.970504
美宜佳(夏良横路店),美宜佳,白云区,夏良高桥中路18号,113.317654,23.290203
美宜佳(美林天地店),美宜佳,天河区,前进街道黄埔大道东653号101铺,113.412378,23.105669
美宜佳(万科会博商业中心店),美宜佳,番禺区,韦海路220号万科会博商业中心F1层,113.280357,22.984713
美宜佳(缘美店),美宜佳,白云区,太和镇黄庄南路103号,113.344075,23.237225
美宜佳(天骄时代城店),美宜佳,番禺区,新置路大石星芳园东北100-3号,113.327215,23.015803
美宜佳(假日新街店),美宜佳,天河区,东灏商业大厦西南门旁,113.402057,23.125415
美宜佳(众志路店),美宜佳,番禺区,天骄时代城,113.329302,23.016112
美宜佳(南大路店),美宜佳,番禺区,大石街道南大公路46号,113.326925,23.010752
美宜佳(加庄店),美宜佳,黄埔区,加庄新东街四巷2号(加庄地铁站B口步行120米),113.461284,23.147299
美宜佳(大北路店),美宜佳,番禺区,前进大街2号,113.366523,22.938574
美宜佳(云商汇店),美宜佳,天河区,新塘街道软件路天河云商汇4栋一楼美宜佳,113.407206,23.169892
美宜佳(南胜路店),美宜佳,白云区,南胜路与鹤龙四路交叉口东160米,113.305329,23.284204
美宜佳(市头村口店),美宜佳,番禺区,市头大道南10号,113.395227,23.016581
美宜佳(毓秀路店),美宜佳,番禺区,钟村街道钟村人民路39号(近毓秀路),113.317744,22.977018
美宜佳(m442店),美宜佳,番禺区,南村镇7号小镇105号(员岗地铁站G口步行100米),113.364826,23.01711
美宜佳(万科广场店),美宜佳,天河区,新岑四路与华观南八街交叉口西北120米,113.405222,23.165917
美宜佳(头庙路店),美宜佳,番禺区,石壁大洲村头庙路5号(大洲地铁站D口步行270米),113.259638,22.985394
美宜佳(人和安置区店),美宜佳,白云区,人和镇东华村华成路207-209号,113.296418,23.347895
美宜佳,美宜佳,黄埔区,开泰大道30号PCI·未来社区,113.473993,23.162291
美宜佳(南里路店),美宜佳,番禺区,南里路与江南东街交叉口东20米,113.367825,22.992549
美宜佳(创德汇店),美宜佳,番禺区,东环街道桥兴大道494号,113.351023,22.963493
美宜佳(望岗东胜街店),美宜佳,白云区,嘉禾望岗西岭路4巷25号,113.279422,23.238379
美宜佳(世纪绿洲店),美宜佳,天河区,品翠街2(植物园地铁站C口步行70米),113.367208,23.19118
美宜佳(长盛汇店),美宜佳,番禺区,大石街道富石路317号长盛汇114号铺,113.311611,23.011546
美宜佳(家庭店),美宜佳,花都区,天贵路52号,113.223217,23.384605
美宜佳(中建·星光城店),美宜佳,白云区,晶星西街2号118室,113.21162,23.234128
美宜佳(天河公馆店),美宜佳,天河区,悦景路33号101房金地公馆门口旁,113.432531,23.142986
美宜佳(西丽路店),美宜佳,番禺区,北桥路49号,113.354755,22.939939
美宜佳(茂和公寓店),美宜佳,天河区,棠下大片路16号,113.380176,23.129781
美宜佳(棠东东路店),美宜佳,天河区,棠东东路与泰安北路交叉口西南20米,113.389589,23.130701
美宜佳(工业二路店),美宜佳,番禺区,工业二路,113.32691,23.005271
美宜佳(太和广场店),美宜佳,白云区,太和镇太和中路190号(粤12066),113.35473,23.294067
美宜佳(富力城店),美宜佳,白云区,富力城北区,113.263624,23.249498
美宜佳(广州科学城商业广场店),美宜佳,黄埔区,科学大道181号广州科学城商业广场F1层,113.451306,23.167081
美宜佳(长盛街店),美宜佳,黄埔区,姬堂乐善大街与长盛街交叉口北50米,113.46015,23.134985
美宜佳(大夫山店),美宜佳,番禺区,钟韵路104号,113.310923,22.96711
美宜佳(长隆梦工场K105店),美宜佳,番禺区,大石街敏昌街96号3栋108号,113.327777,23.008003
美宜佳(羊城花园店),美宜佳,天河区,桃园西路635号-101,113.41165,23.118021
美宜佳(城隽和府店),美宜佳,番禺区,谢石公路与汉溪大道中辅路交叉口西南400米,113.289033,22.990332
美宜佳(惠诚大厦店),美宜佳,天河区,广汕二路602号惠诚大厦,113.413421,23.190135
美宜佳,美宜佳,番禺区,颖川中路与福田路交叉口东北20米,113.397764,22.961431
美宜佳(文昌路店),美宜佳,番禺区,坑头综合市场南门旁,113.396173,22.981927
美宜佳(新社大街店),美宜佳,番禺区,番禺广场附近大龙街罗家村罗家路111号,113.38725,22.943828
美宜佳,美宜佳,番禺区,南郊路与桥南路交叉口西北20米,113.368187,22.928177
美宜佳,美宜佳,白云区,梅田村康安二街,113.406292,23.35451
美宜佳(顺和街店),美宜佳,白云区,太和镇顺和街2号,113.363098,23.293801
美宜佳,美宜佳,花都区,望亭路与中陵大街交叉口西160米,113.185833,23.369468
美宜佳(华成路店),美宜佳,白云区,人和华成路275号,113.297364,23.349102
美宜佳(太营路店),美宜佳,白云区,太和镇太营路139号109铺,113.349724,23.295141
美宜佳(和意东路店),美宜佳,白云区,和意东路与和意路交叉口北140米,113.355325,23.297325
美宜佳(167铺),美宜佳,黄埔区,科翔路100号金峰城F1层,113.452229,23.178759
美宜佳,美宜佳,花都区,雅源南路与广花五路交叉口西60米,113.225525,23.354375
美宜佳(中和东路店),美宜佳,番禺区,大龙街道中和东路1号,113.406533,22.944681
美宜佳,美宜佳,增城区,凤凰城翠湖会所6号,113.572875,23.133175
美宜佳(亚运大道店),美宜佳,番禺区,亚运大道1003号3号楼美宜佳,113.44682,22.940537
美宜佳(翠宇街店),美宜佳,黄埔区,丹水坑路万科尚城,113.530936,23.095181
美宜佳,美宜佳,黄埔区,耀南路118号101(2号楼124房),113.55237,23.097114
美宜佳(光明北路店),美宜佳,番禺区,光明北路245号(市桥地铁站B口步行90米),113.361625,22.949564
美宜佳(南郊店),美宜佳,番禺区,桥南路62号,113.368283,22.929069
美宜佳(南怡大街店),美宜佳,番禺区,南郊路哈街127号,113.365037,22.928156
美宜佳(泰兴路店),美宜佳,番禺区,泰兴路56号,113.406685,22.9395
美宜佳(宝华路店),美宜佳,花都区,新华街道宝华路20号之9号,113.207883,23.386591
美宜佳(新华福宁路店),美宜佳,花都区,新华街道秀全大道4-2号,113.205393,23.376163
美宜佳,美宜佳,增城区,新塘新世界花园万象苑5号门旁,113.573102,23.109835
美宜佳(保盈大道店),美宜佳,黄埔区,保盈大道10号(保盈大道地铁站C口步行410米),113.530196,23.075066
美宜佳,美宜佳,花都区,宝恒商务大厦出入口南120米,113.359275,23.423825
美宜佳(友谊路店),美宜佳,黄埔区,青年路与友谊路交叉口东南40米,113.533233,23.064458
美宜佳(新花街店),美宜佳,花都区,秀全大道64之6-7号(花城路地铁站C口步行470米),113.217075,23.381175
美宜佳(丽雅西街店),美宜佳,花都区,金城广场后面丽雅西街(花城路地铁站D口步行390米),113.209085,23.378527
美宜佳,美宜佳,黄埔区,碧桂园克拉广场西北门西南70米,113.559378,23.196115
美宜佳(信华路店),美宜佳,黄埔区,信华路27-29号,113.482258,23.093432
美宜佳(大北路店),美宜佳,番禺区,关边路一号,113.366743,22.945164
美宜佳(永顺大道西店),美宜佳,黄埔区,黄埔区广州地铁二十一号线长平车站预留空间03号,113.490094,23.210887
美宜佳,美宜佳,番禺区,乐羊羊路与兴峰路交叉口西140米,113.490899,22.948527
美宜佳(泰安路店),美宜佳,番禺区,大龙街泰安路19号,113.420736,22.949802
美宜佳(市场店),美宜佳,黄埔区,萝岗街道茘红路87号自编103号铺,113.506303,23.175364
美宜佳(星悦峰店),美宜佳,黄埔区,黄埔东路2019号星悦峰(庙头地铁站B2口旁),113.504505,23.083705
美宜佳(人汉公路店),美宜佳,白云区,人和镇人汉公路3号,113.304586,23.342545
美宜佳(富华东路店),美宜佳,番禺区,富华东路66号,113.369352,22.947586
美宜佳(东蓝路店),美宜佳,番禺区,石基镇富怡路208号,113.411042,22.960627
美宜佳(双岗黄岗大街店),美宜佳,黄埔区,红山街道信华路163号协同大厦,113.481875,23.096075
美宜佳(宝华路店),美宜佳,花都区,宝华路33号之5号,113.209731,23.387941
美宜佳(新华钟村店),美宜佳,花都区,航校东街与钟村大街交叉口钟村市场牌坊美宜佳,113.201242,23.365572
美宜佳(花城路店),美宜佳,花都区,花城路22-2号(花城路地铁站C口步行330米),113.21491,23.378273
美宜佳(沙坑南路店),美宜佳,番禺区,青云大道296号,113.345709,22.911021
美宜佳(广州番禺区),美宜佳,番禺区,大龙街市莲路傍江西村段18号新安商务中心,113.405086,22.943418
美宜佳(香柏御府店),美宜佳,番禺区,德贤路600号香柏御府,113.356324,22.913936
美宜佳(繁华路店),美宜佳,花都区,炭步镇繁华路6号商铺(P215),113.107293,23.330872
美宜佳(石楼市场店),美宜佳,番禺区,西三街2号,113.485832,22.969408
美宜佳(金盆南路店),美宜佳,白云区,金盘工业基地西北门西南70米,113.375493,23.312982
美宜佳(人和聚贤街店),美宜佳,白云区,穗和家园西南门西100米,113.292342,23.332607
美宜佳(福田路店),美宜佳,番禺区,旧水坑福田路4号,113.396935,22.96049
美宜佳,美宜佳,花都区,颐安俪都府二期北门西260米,113.249025,23.433075
美宜佳(粤15128店),美宜佳,白云区,良城三路68号,113.376933,23.358216
美宜佳(埔南路店),美宜佳,黄埔区,沙元新一街8号(国强大排档旁),113.5385,23.126966
美宜佳(南康新村店),美宜佳,黄埔区,春晖六街19号102铺,113.545468,23.105775
美宜佳(合和新城店),美宜佳,花都区,新雅街道合和新城四期银松一街13-3号,113.253601,23.368335
美宜佳(雅荷居店),美宜佳,番禺区,中华大道484号,113.349422,22.908501
美宜佳(金海岸店),美宜佳,番禺区,兴泰东路140号,113.410708,22.932626
美宜佳(盛泰店),美宜佳,番禺区,沙圩一村盛泰花园二区东门旁,113.383304,22.932357
美宜佳(花都龙珠路店),美宜佳,花都区,新华街茶园南路与松园路交汇处,113.21038,23.398113
美宜佳(迎宾大道店),美宜佳,白云区,人和镇矮岗村陇西庄27号一楼1号铺,113.29046,23.36258
美宜佳(炭步南街店),美宜佳,花都区,炭步镇南街路炭步综合市场主楼01号宜多百货广场(炭步店),113.106659,23.332874
美宜佳(北后街店),美宜佳,白云区,人和北后西街与鹤龙六路交叉口东北60米,113.298357,23.333345
美宜佳(星尚·名玥花园店),美宜佳,番禺区,丰尚路68号星尚·名玥花园,113.397101,22.947895
美宜佳(亚运城店),美宜佳,番禺区,亚运大道1290号亚运城·天成1区,113.476161,22.945706
美宜佳(钟升横路店),美宜佳,白云区,钟落潭镇钟升路101号(P280),113.404521,23.38085
美宜佳(钟升路店),美宜佳,白云区,钟升小区北门旁,113.403594,23.382725
美宜佳(尚上名筑店),美宜佳,番禺区,石楼镇南环路123号,113.489071,22.95584
美宜佳,美宜佳,增城区,新塘建设路131号,113.61833,23.110788
美宜佳,美宜佳,增城区,宁西街创盈路379号中建鄂旅投·岭南悦府,113.617316,23.186017
美宜佳(新新五路店),美宜佳,增城区,新新大道北金地公园上城1号,113.597794,23.21963
美宜佳,美宜佳,增城区,永宁街创裕路190号誉山国际1区13期,113.597616,23.191153
美宜佳,美宜佳,增城区,裕发大道与久裕大道交叉口西南200米,113.644543,23.121661
美宜佳,美宜佳,南沙区,凤凰大道与东裕一街交叉口东南220米,113.530764,22.805018
美宜佳(永昌楼店),美宜佳,花都区,海关西街4-1,113.203279,23.385902
美宜佳(雅兰苑店),美宜佳,花都区,茶元路1号01商铺(花果山公园地铁站C口步行320米),113.216165,23.386522
美宜佳(建辉路店),美宜佳,花都区,建设北路136-7号,113.205384,23.396259
美宜佳,美宜佳,增城区,科慧花园育科一路68号(凤岗地铁站C口步行400米),113.6728,23.278176
美宜佳(总部店),美宜佳,南沙区,双山大道越秀国际总部广场,113.54365,22.791995
美宜佳(石新路店),美宜佳,增城区,雅瑶大道30号,113.660154,23.156775
美宜佳,美宜佳,南沙区,方圆合景·南沙水恋(黄阁汽车城地铁站A口步行60米),113.509242,22.835206
美宜佳,美宜佳,增城区,荔城街道园圃路20号之一,113.829596,23.288719
美宜佳(天美商业城店),美宜佳,花都区,新华街道微丽王室(广州花都广场地铁站店)天美商业城,113.229576,23.392127
美宜佳(榕悦花园店),美宜佳,黄埔区,黄埔东路4260号,113.549391,23.107876
美宜佳(隆晖苑店),美宜佳,花都区,曙光路78-46号,113.228491,23.402978
美宜佳(银星花园店),美宜佳,花都区,凤凰北路27-8号,113.232955,23.395241
美宜佳(鼎盛一路店),美宜佳,花都区,平步大道东1号,113.256541,23.423912
美宜佳(宝铼雅居店),美宜佳,花都区,迎宾大道西163号宝铼雅居,113.163899,23.396377
美宜佳(东景店),美宜佳,增城区,广深大道西168-1号(白江地铁站D2口步行70米),113.595669,23.121767
美宜佳(太南路店),美宜佳,南沙区,太南路与太南路十四街交叉口东北160米,113.408239,22.887665
美宜佳(卫山路店),美宜佳,增城区,卫山北二路70号,113.609444,23.119394
美宜佳,美宜佳,南沙区,盛良路6号敦信中街、AI汇6栋116、117号,113.495828,22.875619
美宜佳(亚运城·天韵店),美宜佳,番禺区,亚运城·天韵北门旁,113.495025,22.947275
美宜佳(亚运城·天骄店),美宜佳,番禺区,亚运城·天骄东门旁,113.499389,22.946347
美宜佳(时代康桥店),美宜佳,花都区,狮岭镇金狮大道西20号时代康桥,113.151022,23.465861
美宜佳(商业街店),美宜佳,花都区,新华街道凤凰北路团结商业街南石东路12-1号,113.231958,23.421931
美宜佳(黄河路店),美宜佳,番禺区,建发广场东北门东90米,113.487499,22.963682
美宜佳(碧秀路店),美宜佳,花都区,金色华庭南门东80米,113.224886,23.39601
美宜佳(蔚来店),美宜佳,黄埔区,万科里享家1期,113.567825,23.195925
美宜佳(盘古中路店),美宜佳,花都区,盘古路54号,113.156239,23.466807
美宜佳,美宜佳,南沙区,黄阁镇麒麟新村麒旺一巷1.3.5号首层自编5号,113.497902,22.811628
美宜佳,美宜佳,南沙区,进港大道与番禺大道南出口交叉口西300米,113.492887,22.794043
美宜佳(华侨花园店),美宜佳,花都区,公益路6-43号,113.219797,23.393623
美宜佳(建益商业城店),美宜佳,黄埔区,建益商业城东门旁,113.554741,23.118417
美宜佳(宝华路店),美宜佳,花都区,宝华路与大松园一巷交叉口西160米,113.228975,23.393075
美宜佳,美宜佳,花都区,新花路2号芙蓉春晓花苑,113.230361,23.470349
美宜佳,美宜佳,增城区,石滩绿湖首府绿湖中路76号,113.794415,23.200154
美宜佳(恒昌商务大厦店),美宜佳,花都区,建设北路188号恒昌商务大厦F1层,113.208641,23.408239
美宜佳,美宜佳,增城区,新新公路与创优路交叉口西北120米,113.592641,23.194862
美宜佳(新新大道南店),美宜佳,增城区,新塘镇时尚广场399号(新塘地铁站E1口步行300米),113.605415,23.129875
美宜佳(永康路店),美宜佳,增城区,永宁街永康路28号,113.589467,23.177197
美宜佳(永胜北街店),美宜佳,增城区,永胜北路4号,113.591984,23.179234
美宜佳(新沙大道店),美宜佳,增城区,新塘镇白石金庄路4巷1号,113.651795,23.151871
美宜佳(兰花苑店),美宜佳,花都区,花城街兰花路28号-23号(美宜佳粤27923),113.225121,23.402805
美宜佳,美宜佳,增城区,路边村委会西南门旁,113.660472,23.216835
美宜佳,美宜佳,花都区,团五西二街10号楼1号铺,113.17616,23.46046
美宜佳(绿地城店),美宜佳,黄埔区,九龙大道泊语街7号之一113,113.548636,23.322915
美宜佳(顺欣广场店),美宜佳,增城区,民营大道西1号,113.625337,23.146164
美宜佳(汇太中路店),美宜佳,增城区,美业阁东门旁,113.612836,23.128486
美宜佳(进港大道店),美宜佳,南沙区,奥园中环广场海景城AB-153,113.540982,22.799462
美宜佳(利和路店),美宜佳,花都区,狮岭镇金狮一街50号,113.145175,23.463225
美宜佳(夏街大道店),美宜佳,增城区,夏街大道56号,113.832089,23.283799
美宜佳(田吓金田路店),美宜佳,增城区,新塘大道西143号D135店,113.594223,23.115896
美宜佳(金泽惠百氏店),美宜佳,增城区,白江地铁站C口步行250米,113.593851,23.12389
美宜佳(井泉一路店),美宜佳,黄埔区,广州凯立达电子有限公司西南门旁,113.576484,23.182956
美宜佳,美宜佳,增城区,翔云路与好韵北街交叉口南140米,113.749625,23.244175
美宜佳(望成路店),美宜佳,花都区,望成路与合成村石拱桥一街交叉口南20米,113.181959,23.449495
美宜佳(合成市场店),美宜佳,花都区,合成三街63号,113.182921,23.45271
美宜佳(石清公路店),美宜佳,番禺区,石楼镇南派村石清公路199号之2号,113.492968,22.935918
美宜佳(东江店),美宜佳,增城区,富荔路22-4号,113.652856,23.120805
美宜佳(金狮大道东店),美宜佳,花都区,新民路66号,113.222442,23.470096
美宜佳(同心街店),美宜佳,花都区,同心街46号,113.153349,23.464568
美宜佳(广兴路店),美宜佳,南沙区,云秀幸福花园南区,113.500189,22.743791
美宜佳(科德大道店),美宜佳,增城区,科德大道与文礼路交叉口西南200米,113.678125,23.288425
美宜佳(新市路店),美宜佳,增城区,中新镇新市路50号,113.620375,23.287612
美宜佳(博爱路店),美宜佳,南沙区,大岗镇潭州隔博爱路51号,113.39046,22.781464
美宜佳(信宜村店),美宜佳,南沙区,金洲金岭北路金苑大街信宜村,113.550208,22.794217
美宜佳(富群路店),美宜佳,增城区,东坑四横路2号,113.608915,23.123684
美宜佳(风光路店),美宜佳,增城区,风光路74号,113.624431,23.282754
美宜佳,美宜佳,南沙区,星河·江堤春晓东侧250米,113.516625,22.757475
美宜佳(现代城市花园店),美宜佳,增城区,新塘镇现代城150号(新塘地铁站D2口步行460米),113.604345,23.127239
美宜佳(新塘大道店),美宜佳,增城区,新塘大道中121号,113.610902,23.116352
美宜佳(太阳城店),美宜佳,增城区,新塘镇广深大道中188号,113.607672,23.122255
美宜佳(合晋中心店),美宜佳,增城区,新塘镇东进东路8号之六101号,113.600169,23.125364
美宜佳(建云东小区店),美宜佳,从化区,府前路120号,113.588096,23.542911
美宜佳(镇龙华隆路店),美宜佳,黄埔区,广汕公路美佳购物广场(西侧),113.582476,23.278516
美宜佳(东进广场店),美宜佳,增城区,创新大道9号,113.617925,23.156275
美宜佳(富裕路店),美宜佳,增城区,朱村街道富裕路53号(朱村地铁站D口步行480米),113.697619,23.274317
美宜佳(工业二路店),美宜佳,增城区,新塘镇上邵村转盘环村路27号,113.641607,23.155384
美宜佳(南沙万达店),美宜佳,南沙区,环市大道中25号164铺,113.534349,22.795329
美宜佳(两龙中街店),美宜佳,花都区,花山镇南岭路1-2号(近江滨皮革厂),113.277868,23.451951
美宜佳(新新大道中店),美宜佳,增城区,永宁街创裕路合景誉山国际公寓3号楼116号底商,113.594879,23.191599
美宜佳(新新公路店),美宜佳,增城区,荷花小区一街1号,113.601574,23.205163
美宜佳(b505店),美宜佳,从化区,河滨北路310号,113.592054,23.546082
美宜佳(旺城店),美宜佳,从化区,旺城大道77号之1号,113.574343,23.556109
美宜佳(增城大道店),美宜佳,增城区,荔城街道荔城街荔乡路95号102,113.818711,23.276195
美宜佳(万科府前花园店),美宜佳,南沙区,凤凰大道万科府前-一号,113.521155,22.791349
美宜佳(西二路店),美宜佳,南沙区,珠江街西二路3号,113.545515,22.700333
美宜佳(铁塔路店),美宜佳,增城区,[],113.624775,23.118375
美宜佳(增城万科城店),美宜佳,增城区,万科辰光花园商业街靠近售楼部和小区正大门第一间,113.610988,23.240314
美宜佳,美宜佳,黄埔区,红卫亨美二街19号116铺,113.487922,23.399403
美宜佳(九龙大道店),美宜佳,黄埔区,云创街11号(自编号T5)102房,113.550268,23.325955
美宜佳(大时代店),美宜佳,增城区,牛仔城一路2大时代F1层,113.633071,23.123987
美宜佳(雍禾苑店),美宜佳,从化区,城峰路34号,113.579774,23.537553
美宜佳(人和路店),美宜佳,从化区,人和路与城鳌大道中交叉口东北60米,113.447108,23.601188
美宜佳(大岗东濠路店),美宜佳,南沙区,东濠路331号,113.397742,22.797191
美宜佳(康政西路店),美宜佳,花都区,康政路12号之3号,113.158931,23.462482
美宜佳(新和南路店),美宜佳,增城区,白水村榕园路六巷16号一楼商铺,113.637542,23.164221
美宜佳(嘉禾广场店),美宜佳,增城区,中新镇福和街坪中路169号,113.613717,23.285155
美宜佳(团一大楼店),美宜佳,花都区,金狮大道东41号团一大楼F1层,113.178999,23.466679
美宜佳(黄沙头店),美宜佳,增城区,新沙大道北519号(方中三路1号),113.653223,23.146898
美宜佳(D070店),美宜佳,增城区,新塘沙埔巷口村农贸综合市场粤广美点旁边,113.658034,23.169879
美宜佳(新光·百德广场店),美宜佳,从化区,广从南路546号新光·百德广场F1层,113.491913,23.448519
美宜佳(S118店),美宜佳,增城区,中新镇侨建御溪谷御宾路3号-3,113.6103,23.286739
美宜佳(仕贤街店),美宜佳,南沙区,黄阁镇麒龙东路53号,113.51319,22.825779
美宜佳(13139店),美宜佳,从化区,工业大道与广从南路交叉口智汇国际大厦入口,113.491196,23.446651
美宜佳(裕乐街店),美宜佳,南沙区,金沙路星河盛世,113.54777,22.802092
美宜佳(园中路店),美宜佳,增城区,宁西园中路2号,113.659656,23.218221
美宜佳,美宜佳,从化区,旺城南路四巷与旺城南路交叉口西南20米,113.571651,23.554708
美宜佳,美宜佳,增城区,荔城街道塘园中路富和文明小区塘园中路28号,113.83336,23.297673
美宜佳,美宜佳,南沙区,红海路与渔村三街交叉口南20米,113.607125,22.647786
美宜佳(前进路店),美宜佳,从化区,鳌头前进路172-174号,113.423753,23.619772
美宜佳(城中路店),美宜佳,从化区,街口街道城中路85号,113.587843,23.540115
美宜佳(五一新村店),美宜佳,增城区,荔湖街道五一新村1号门美宜佳欣民路201-2,113.797753,23.269818
美宜佳(实地·蔷薇国际店),美宜佳,增城区,增城大道419号,113.769068,23.287312
美宜佳(恒安路店),美宜佳,增城区,恒福路雅乐居(惠群路)(朱村地铁站C口步行90米),113.702545,23.273439
美宜佳(湾区•金融城店),美宜佳,南沙区,葛城水岸西四巷2号106房,113.508897,22.755076
美宜佳(东城路店),美宜佳,花都区,象山村东城路22号美宜家,113.332622,23.437975
美宜佳,美宜佳,增城区,朱宁路与朱村大道西交叉口南240米,113.696903,23.269999
美宜佳,美宜佳,增城区,育水一路与朱村大道西交叉口北160米,113.675956,23.277445
美宜佳(经二路店),美宜佳,增城区,增江街经二路1层74号,113.846532,23.274614
美宜佳(广深大道中店),美宜佳,增城区,广深大道中辅路与港口大道交叉口东160米,113.605675,23.121625
美宜佳(菜园路店),美宜佳,增城区,荔城街道菜园中路100号,113.827267,23.305893
美宜佳(珠江一路店),美宜佳,南沙区,珠江一路7号,113.546501,22.702984
美宜佳(时代幸汇店),美宜佳,从化区,江埔街环市东路174号,113.608628,23.532037
美宜佳(新市路店),美宜佳,增城区,中新镇新市路2号首层,113.62221,23.285225
美宜佳(贵荔路店),美宜佳,增城区,新塘镇大敦村东江开发区广荔大道62号,113.655859,23.121408
美宜佳(中福北路店),美宜佳,增城区,中新镇中福北路5号,113.629383,23.299692
美宜佳(新村北路店),美宜佳,从化区,城郊街道新村北路154-156号(E660),113.58431,23.5546
美宜佳(新城大道店),美宜佳,增城区,罗岗村北区南门西北440米,113.817528,23.256865
美宜佳(星科街店),美宜佳,从化区,从化体育馆西门北170米,113.602082,23.537906
美宜佳(万地·雅涛阁店),美宜佳,南沙区,长堤东路39-5号,113.610176,22.651416
美宜佳(B576店),美宜佳,从化区,河滨北路310号,113.599343,23.55151
美宜佳(缤纷城店),美宜佳,黄埔区,亿创街1号人才大厦116(旺村地铁站C口步行380米),113.548825,23.324625
美宜佳(中航城花园店),美宜佳,增城区,朱村街道亚星路66号保利中航城东门,113.675426,23.272003
美宜佳(紫茗花园店),美宜佳,南沙区,富佳北街45号,113.552136,22.802146
美宜佳(大望路店),美宜佳,增城区,团结村下车路(恒大山水城一期出入口对面)(K646),113.613233,23.298484
美宜佳(奥园·中环广场店),美宜佳,南沙区,逸涛社区中景三街6号,113.539308,22.798762
美宜佳(西城路店),美宜佳,增城区,莲园路,113.831125,23.288175
美宜佳(荔城通园路店),美宜佳,增城区,富鹏路41号,113.825261,23.302818
美宜佳(宝峰南路店),美宜佳,花都区,狮岭镇宝南路25号,113.174863,23.45917
美宜佳(荔园路店),美宜佳,增城区,莲翠街22号,113.830791,23.284969
美宜佳(向阳南路店),美宜佳,从化区,向阳南路二巷36号,113.59494,23.552283
美宜佳(宜居苑店),美宜佳,增城区,荔城街通园中路65号,113.824962,23.303836
美宜佳(润悦花园店),美宜佳,增城区,荔湖街道愉安路华润置地·润悦5栋S047号,113.770225,23.278525
美宜佳,美宜佳,从化区,温泉镇碧泉一横街37号,113.655684,23.645264
美宜佳(惠民商业城店),美宜佳,从化区,惠民商业城西南门旁,113.601019,23.53842
美宜佳(沙园中路店),美宜佳,增城区,荔城街怡丰路19号,113.831547,23.295537
美宜佳(光明西路店),美宜佳,增城区,荔城街光明西路11号,113.832075,23.286525
美宜佳(达开北路店),美宜佳,增城区,达开北路78号,113.773748,23.564701
美宜佳(新岭街店),美宜佳,从化区,格塘队259号,113.72557,23.72119
美宜佳(金御苑北区。店),美宜佳,白云区,解放南路142号国昌新城市广场1层,113.202412,23.144749
美宜佳(艺苑南路店),美宜佳,海珠区,杨协成时尚工场西北门旁,113.321192,23.090782
美宜佳(十甫名都商城店),美宜佳,荔湾区,十八甫北路48号,113.246179,23.113204
美宜佳(育蕾小区店),美宜佳,天河区,体育西横街64号(体育西路地铁站B口步行290米),113.323541,23.12894
美宜佳(翠怡小区店),美宜佳,海珠区,江南大道南479-5号(江泰路地铁站B1口步行70米),113.280759,23.082313
美宜佳(学山同德里店),美宜佳,白云区,西槎路129号(鹅掌坦地铁站C口步行130米),113.234501,23.157805
美宜佳(南边路店),美宜佳,海珠区,鸡春岗新街1号之二(棣园地铁站B口步行440米),113.265538,23.076106
美宜佳(麦地东街店),美宜佳,白云区,麦华路10号(京溪南方医院地铁站D口步行330米),113.323095,23.183514
美宜佳(中环路店),美宜佳,番禺区,中环路21号,113.312971,23.040639
美宜佳(逸佳购物城店),美宜佳,海珠区,工业大道南446号逸佳购物城F1层,113.28181,23.069359
美宜佳(解放庄路店),美宜佳,白云区,白云大道北解放庄路解放庄10号公寓对面,113.28931,23.217007
美宜佳(沁贤街店),美宜佳,荔湾区,海龙街道龙溪中路中铁荔湾国际城忆澜街112号,113.215905,23.078826
美宜佳(新陶苑店),美宜佳,天河区,石牌东陶育路15号,113.344494,23.128085
美宜佳(青龙大街店),美宜佳,白云区,江夏村青龙大街54号,113.275956,23.210173
美宜佳(晓港湾店),美宜佳,海珠区,南洲路晓港湾文华街首层1号铺(东晓南地铁站E1口旁),113.29252,23.070857
美宜佳(海珠鹭江西店),美宜佳,海珠区,鹭江西街88号,113.307523,23.086174
美宜佳(力达广场店),美宜佳,天河区,粤垦路609号A2栋01号,113.327719,23.15728
美宜佳(横沙村店),美宜佳,白云区,金沙街道平乐中街7号,113.210482,23.160686
美宜佳(银利新邨店),美宜佳,天河区,银利街23号,113.322667,23.167807
美宜佳(金宇花园店),美宜佳,荔湾区,芳村东沙大道紫东大街141号,113.251908,23.060557
美宜佳(民安路店),美宜佳,番禺区,南浦东乡村西十八涌大排档对面,113.275457,23.036434
美宜佳(迎福路店),美宜佳,天河区,龙洞街道迎福路368号,113.377479,23.19985
美宜佳(后滘西大街二巷店),美宜佳,海珠区,南洲街道广州大道南1395号之一(粤12245),113.312183,23.070187
美宜佳(石牌西路店),美宜佳,天河区,众程数码广场A场东门东南60米,113.338107,23.133319
美宜佳(汉溪路店),美宜佳,番禺区,汉溪路151号,113.328525,22.990175
美宜佳(太和金铂天地广州怡家雅居店),美宜佳,白云区,太和镇太和北路102号101铺,113.35403,23.296841
美宜佳(永泰集贤北南街店),美宜佳,白云区,集贤北一巷1号,113.304684,23.236922
美宜佳(大沙东路店),美宜佳,黄埔区,欣昌街15号105铺(文冲地铁站A口步行200米),113.466583,23.104126
美宜佳(谢家庄文威北街店),美宜佳,白云区,朝亮北路21-2号,113.361368,23.297369
美宜佳(小塘东路店),美宜佳,白云区,江高镇e236店小塘东路13号,113.209816,23.274864
美宜佳(永兴新村店),美宜佳,白云区,陈太路35号,113.3311,23.265277
美宜佳(南大干线辅路店),美宜佳,番禺区,河东路1号,113.335284,23.01121
美宜佳(陈地上街店),美宜佳,番禺区,南村镇板桥村陈地路13号,113.389611,23.01236
美宜佳(高唐路店),美宜佳,天河区,新塘街道高塘社区华观路1932号万科广场F1,113.404125,23.166175
美宜佳(瑶安路店),美宜佳,白云区,西成路8号人和商业中心,113.292672,23.342967
美宜佳(幸福南路店),美宜佳,番禺区,洛浦街道幸福南路,113.333879,23.038762
美宜佳(惠信商业园店),美宜佳,番禺区,沙溪迎宾路115号旁,113.327639,23.036039
美宜佳(高塘圩店),美宜佳,白云区,江高镇江同路122号,113.230541,23.273404
美宜佳(太营路店),美宜佳,白云区,太营路与鸿发街交叉口西300米,113.351697,23.294753
美宜佳,美宜佳,白云区,泉溪泉溪路与泉溪南西街交叉口北20米,113.228225,23.295475
美宜佳,美宜佳,黄埔区,黄埔东路与金竹山路交叉口西160米,113.526442,23.086065
美宜佳(恒美综合大楼店),美宜佳,番禺区,恒美综合大楼,113.396472,23.006497
美宜佳(北桥路三街店),美宜佳,番禺区,西丽南路91号,113.354025,22.937487
美宜佳(中海誉城店),美宜佳,黄埔区,云埔五路B1栋119号,113.528452,23.160762
美宜佳(天贵路店),美宜佳,花都区,新华街天贵路49-18号,113.222525,23.383138
美宜佳(金钟路店),美宜佳,花都区,俊怡·云山御居西北门北50米,113.194203,23.377215
美宜佳(南岗新城店),美宜佳,黄埔区,南岗路22号南岗新城F1层(南岗地铁站B口步行90米),113.542056,23.094961
美宜佳,美宜佳,黄埔区,夏园路与学校路交叉口东南180米,113.516792,23.078941
美宜佳,美宜佳,增城区,水南大道东与夏埔东区六街交叉口东100米,113.566104,23.105622
美宜佳(新沙金庄店),美宜佳,增城区,新沙大道北547号,113.652875,23.152277
美宜佳(广州庆安居店),美宜佳,南沙区,庆安居,113.471448,22.88518
美宜佳(新城西路店),美宜佳,从化区,城郊街道新城西路164号,113.576987,23.555136
美宜佳(规划横一路店),美宜佳,南沙区,凤凰大道91号,113.511896,22.782157
美宜佳(新沙大道北店),美宜佳,增城区,新沙大道北与白石太和路交叉口西北80米,113.65549,23.158507
美宜佳(建设西路店),美宜佳,增城区,建设西路与江龙大道交叉口东北20米,113.826139,23.13108
美宜佳(越秀国际总部广场店),美宜佳,南沙区,上隆岭路15号,113.541933,22.79502
美宜佳(宝峰南路店),美宜佳,花都区,狮岭镇尚信路9-2、3号,113.175382,23.458083
美宜佳(合成北路店),美宜佳,花都区,合成北路与合成北八街交叉口南60米,113.18108,23.455765
美宜佳(新塘沙埔新沙大道店),美宜佳,增城区,新塘镇沙埔雅瑶大道72号,113.65771,23.154471
美宜佳(阳光城市广场店),美宜佳,南沙区,兴业路118号阳光城市广场F1层,113.400341,22.79478
美宜佳(麒龙路店),美宜佳,南沙区,黄阁镇麒龙东路100号,113.511137,22.825222
美宜佳(阳光城店),美宜佳,南沙区,阳光城·丽景湾西门旁,113.542263,22.817773
美宜佳(江埔街道店),美宜佳,从化区,江埔街明珠路47-49号,113.604517,23.530172
美宜佳(锦三村店),美宜佳,从化区,锦洞路6号,113.581751,23.515551
美宜佳(凤仪西路店),美宜佳,从化区,凤仪西路6号,113.583631,23.541332
美宜佳(友丰小区店),美宜佳,增城区,荔城街道沙园中路20号101,113.831628,23.299005
美宜佳(上城湾畔店),美宜佳,从化区,广东省广州市从化区江埔街江湾路5号,113.587421,23.530551
美宜佳(联世广场店),美宜佳,黄埔区,天鹿南路116号联世广场F1层,113.426401,23.198158
美宜佳(天河北社大街店),美宜佳,天河区,棠下北社大街2号B870,113.382333,23.131122
美宜佳(福德路店),美宜佳,番禺区,福德路519号,113.367615,22.922215
美宜佳(沙头大平商业街店),美宜佳,番禺区,禺山西路242号,113.336856,22.937488
美宜佳(新中路店),美宜佳,花都区,新城市花园西门旁,113.210157,23.371755
美宜佳(长钟路店),美宜佳,白云区,长钟路26号,113.407025,23.386575
美宜佳(凤凰东路店),美宜佳,花都区,新华街凤凰南路柏高酒店1层,113.236808,23.38867
美宜佳(万荟珑寓店),美宜佳,黄埔区,万达金街3101号,113.551175,23.097075
美宜佳(锦尚·蓬莱苑店),美宜佳,花都区,凤凰北路锦尚蓬莱8-43号,113.235911,23.392033
美宜佳(纵一路店),美宜佳,增城区,纵一路与纵二路交叉口东220米,113.667525,23.207225
美宜佳(仙宁路店),美宜佳,增城区,永宁街宁西路边村太仙路1号,113.661579,23.214512
美宜佳(瑶前路店),美宜佳,增城区,瑶前路33号,113.661726,23.156088
美宜佳(番禺建华路店),美宜佳,番禺区,大石街道大石建华路23号,113.315422,23.020143
美宜佳(新保利时代店),美宜佳,从化区,江埔街道秀安路174号,113.629069,23.571495
美宜佳(万科幸福誉店),美宜佳,黄埔区,万科幸福誉(何棠下地铁站A口步行380米),113.541688,23.333081
美宜佳(金泽花园店),美宜佳,增城区,担杆坳路6号(金泽花园西门1),113.616769,23.117096
美宜佳(沙埔市场店),美宜佳,增城区,万联百货北门旁,113.659552,23.155104
美宜佳(吉祥路店),美宜佳,花都区,狮岭镇吉祥街71号,113.146205,23.459696
美宜佳(中坚花园店),美宜佳,增城区,荔城街道民生路22号,113.822014,23.278503
美宜佳(富国路店),美宜佳,增城区,富和路45号,113.82901,23.29751
美宜佳(富宝路店),美宜佳,增城区,菜园中路90号,113.827114,23.304595
美宜佳(欧华路店),美宜佳,花都区,联建大厦欧华路西北门旁,113.191221,23.476653
全家便利店(新河浦历史文化街区店),全家,越秀区,庙前直街28号(东山口地铁站E口步行370米),113.296347,23.121268
全家便利店(北京路步行街店),全家,越秀区,文德北路68号,113.27197,23.122935
全家便利店(署前路3店),全家,越秀区,署前路33号大院1号楼(东山口地铁站F口步行50米),113.295166,23.123444
全家便利店(人民北路店),全家,越秀区,人民北路917号中国人民解放军南部战区总医院,113.256737,23.141751
全家便利店(大沙头三马路店),全家,越秀区,大沙头三马路东船栏17号(菜鸟驿站-),113.285698,23.116528
全家便利店(金桂园二店),全家,白云区,解放北路1302号(金桂园小区内),113.263748,23.151347
全家便利店(东风西路二店),全家,越秀区,东风西路233-235号101房,113.260118,23.132376
全家便利店(团一大店),全家,越秀区,东园横路58号(团一大广场地铁站A口步行120米),113.276925,23.118075
全家便利店(鸿瑞大厦店),全家,越秀区,中山二路29鸿瑞大厦F1层,113.291385,23.124626
全家便利店(解放中路店),全家,越秀区,解放中路462号1-2层,113.262564,23.124206
全家便利店(韫祥楼店),全家,越秀区,文明路209-1号(农讲所地铁站A口步行410米),113.275685,23.122808
全家便利店(大沙头四马路店),全家,越秀区,大沙头四马路14号(东湖地铁站B2口旁),113.287764,23.115563
全家便利店(广东省人民医院店),全家,越秀区,大东街道广东省人民医院,113.28755,23.124941
全家便利店(广州大道中店),全家,天河区,天河北路2号首层西侧,113.315471,23.140593
全家便利店(建基路店),全家,海珠区,建基路98号1-1,113.287525,23.099675
全家便利店(达信大厦店),全家,越秀区,德政北路538号北向1层零零之2房,113.275172,23.13172
全家便利店(执信南路三店),全家,越秀区,执信南路136号,113.29192,23.129653
全家便利店(纺织路店),全家,海珠区,纺织路名都一街1/3号c15,113.276533,23.110753
全家便利店(荔湾领展广场二店),全家,荔湾区,黄沙大道8号领展购物广场1层180-182铺,113.240025,23.11103
全家便利店(东风东路二店),全家,越秀区,东风东路733号E102(菜鸟驿站-),113.300891,23.131808
全家便利店(嘉和苑店),全家,越秀区,东风西路司马街148号,113.252051,23.132735
全家便利店(宜安广场店),全家,越秀区,建设六马路33号宜安广场F1层,113.284737,23.134474
全家便利店(农林下路店),全家,越秀区,环市东路426号艾安公寓(区庄地铁站C口旁),113.297875,23.134249
全家便利店(解放南路店),全家,越秀区,一德路81号,113.263906,23.11459
全家便利店(小北五店),全家,越秀区,广东四建第十分公司水电建设安装分公司西南门旁,113.278691,23.139558
全家便利店(银利茶叶城店),全家,天河区,沙太路银利街8号C1001-C1002房(银利茶叶城店内),113.322984,23.166383
全家便利店(丽丰国际中心店),全家,越秀区,解放南路33号107单元,113.263003,23.113161
全家便利店(江南中店),全家,海珠区,江南大道中路宝树新街13号1栋首层1104-1105房,113.270575,23.103852
全家便利店(革新路二店),全家,海珠区,梅园西路积优石榴仓1层,113.254757,23.093921
全家便利店(广州国际电子大厦店),全家,越秀区,环市东路403号广州国际电子大厦F1层,113.291289,23.135864
全家便利店(云城南路一店),全家,白云区,三元里街云城南二路2号无限极广场F1层,113.264288,23.170698
全家便利店(西湾路二店),全家,荔湾区,西湾路97号场内综合大楼自编6号楼首层自编102号,113.242423,23.144873
全家便利店(工业大道北店),全家,海珠区,工业大道北97-2号(沙园地铁站D口步行130米),113.25942,23.090378
全家便利店(广州建中路二店),全家,天河区,天河软件园科韵园区南区西北门旁,113.370339,23.124789
全家便利店(仲恺路店),全家,海珠区,仲恺农业工程学院海珠校区南区学生公寓北门西70米,113.281163,23.10447
全家便利店(明月一店),全家,越秀区,五羊新城明月一路6号祈福华厦裙楼1层,113.313326,23.115009
全家便利店(农林下路二店),全家,越秀区,农林下路87-97号农林下路87-97号宿舍,113.297608,23.132188
全家便利店(环市东路辅路店),全家,越秀区,环市东路503号(近张记旺角食街),113.308293,23.134787
全家便利店(达宝广场店),全家,越秀区,流花路109-9号(流花地铁站B口步行220米),113.254165,23.140068
全家便利店(富邦中心店),全家,荔湾区,中山七路51-1014号富邦中心1层,113.2526,23.12533
全家便利店(粤汉路店),全家,天河区,五山粤汉路9号之四(五山地铁站A口步行50米),113.351711,23.152964
全家便利店(建和中心店),全家,天河区,体育西路111号1层,113.321341,23.135978
全家便利店(珠江东路店),全家,天河区,珠江东路421珠江投资大厦1层,113.326142,23.121859
全家便利店(东风广场店),全家,越秀区,东风东路761号丽丰中心F1层,113.309173,23.132939
全家便利店(东环路店),全家,越秀区,东环路19号首层自编之一,113.305082,23.133277
全家便利店(下渡楼店),全家,海珠区,御景阁北门旁,113.305498,23.102399
全家便利店(东方广场店),全家,越秀区,环市东路420号之一华山宾馆旁边,113.295438,23.134357
全家便利店(南北广场店),全家,海珠区,宝岗大道140号,113.261985,23.101531
全家便利店(天河北二店),全家,天河区,天河北路与侨怡一街交叉口东南40米,113.33041,23.141233
全家便利店(天河南一路店),全家,天河区,天河南一路80号102(天河南地铁站A口步行130米),113.324592,23.130881
全家便利店(恒鑫大厦店),全家,越秀区,水荫路2号恒鑫大厦西座(动物园地铁站C口步行320米),113.30939,23.134906
全家便利店(海航大厦店),全家,天河区,林和中路8号海航大厦北塔F1层,113.325935,23.143814
全家便利店(盈丰路店),全家,海珠区,盈丰路24号101(东晓南地铁站A口步行430米),113.297518,23.068881
全家便利店(梅花村店),全家,越秀区,梅花村4号101(杨箕地铁站E1口步行370米),113.304374,23.126525
全家便利店(水荫路二店),全家,越秀区,水荫路73号106房,113.312061,23.140068
全家便利店(兴国路店),全家,天河区,兴国路31号112铺保利·心语东门旁(猎德地铁站D口步行480米),113.330554,23.122198
全家便利店(泓景花园店),全家,海珠区,艺泓路16号泓景花园A区,113.327621,23.098328
全家便利店(中山一店),全家,越秀区,中山一路51号之14号铺(名品居东侧),113.309336,23.12813
全家便利店(水榕路店),全家,海珠区,水榕路154号101房(沙园地铁站B口步行480米),113.259551,23.084832
全家便利店(君华上域店),全家,天河区,先烈中路198号102室(沙河顶地铁站A口旁),113.307232,23.147101
全家便利店(星汇海珠湾店),全家,海珠区,星盈街2号102、103房,113.266686,23.074252
全家便利店(翠城花园店),全家,海珠区,宝岗大道翠城北街37号101铺位,113.271742,23.083575
全家便利店(育兰小区店),全家,天河区,体育西路育兰街6号104之1104之2(近广利路),113.3201,23.128707
全家便利店(天河购物中心店),全家,天河区,中山大道西8号天河购物中心1层,113.343667,23.135702
全家便利店(长城酒店店),全家,越秀区,寺右新马路19号长城酒店1层西侧,113.307389,23.11987
全家便利店(国际医药港店),全家,荔湾区,翠园道与翠园路交叉口北360米,113.266475,23.060125
全家便利店(工业大道中路二店),全家,海珠区,工业大道中357号之一01铺,113.272979,23.074704
全家便利店(华普广场店),全家,天河区,华明路13号华普广场1层9号,113.316606,23.122619
全家便利店(立白中心店),全家,荔湾区,陆居路2号立白中心F1层,113.238777,23.101789
全家便利店(华就店),全家,天河区,华就路6号,113.317442,23.115808
全家便利店(恒福路二店),全家,越秀区,永泰路52-54号华侨乐园,113.29076,23.143757
全家便利店(建国店),全家,天河区,林和中路172号1层之1号,113.325865,23.147512
全家便利店(同福中路店),全家,海珠区,同福中路356号,113.258815,23.10386
全家便利店(丹顿大厦店),全家,天河区,珠江新城海安路2号,113.334512,23.124566
全家便利店(光明北路店),全家,番禺区,光明北路234号(市桥地铁站A口步行350米),113.362236,22.953465
全家便利店(大江直街店),全家,海珠区,一创社东门旁,113.312287,23.100397
全家便利店(星辰大厦店),全家,天河区,华利路57号星辰大厦11号,113.319065,23.117838
全家便利店(君华·香柏广场店),全家,白云区,广州大道北1618号之23-101,113.324803,23.18367
全家便利店(岗顶地铁站店),全家,天河区,天河路261-625号(岗顶地铁站D口旁),113.340457,23.135003
全家便利店(嘉诚国际公寓店),全家,越秀区,广州大道中611号,113.314623,23.138178
全家便利店(第三金碧花园店),全家,海珠区,工业大道南第三金碧花园75栋楼下,113.288336,23.065276
全家便利店(天德广场店),全家,天河区,临江大道391天德广场F1层,113.332184,23.114064
全家便利店(广州国际贸易中心店),全家,天河区,林和西路1号广州国际贸易中心1层110-115号,113.323427,23.141889
全家便利店(保利花园店),全家,海珠区,工业大道中400号17铺保利花园,113.274801,23.072584
全家便利店(高德置地广场·冬广场店),全家,天河区,珠江东路16号高德置地广场·冬广场3F层,113.327225,23.120125
全家便利店(华夏店),全家,天河区,津滨腾越大厦首层106-107,113.320549,23.125899
全家便利店(体育东路店),全家,天河区,体育东路118号102-2室(体育中心地铁站B口旁),113.328825,23.135725
全家便利店(南国花园店),全家,天河区,平月路南国一街17号106D房,113.344401,23.115772
FamilyMart全家便利店翠琳店,全家,荔湾区,保利·公园九里D区西2门旁,113.211784,23.079467
全家便利店(国际医药港店),全家,荔湾区,东沙大道16号1123铺1124铺,113.259625,23.059675
全家便利店(锦绣半岛店),全家,番禺区,洛浦街道南浦环岛西路锦岸街14号商铺,113.256615,23.040169
全家便利店(怡新路店),全家,天河区,广州大道北怡新路32号101铺(梅花园地铁站B口旁),113.321137,23.175596
全家便利店(粤垦店),全家,天河区,粤垦路68号广垦商务大厦1层,113.333797,23.153118
全家便利店(宝地广场店),全家,海珠区,琶洲大道79宝地广场F1层,113.342044,23.102305
全家便利店(五山店),全家,天河区,五山路141号尚德大厦B座一楼(靠近地铁华师站C出口),113.344224,23.139395
全家便利店(智能产业园店),全家,海珠区,南边路38号之1号,113.262792,23.078503
全家便利店(财智大厦二店),全家,海珠区,广州大道南442-452号财智大厦1层,113.314749,23.096542
全家乐商店(松漱前店),全家,海珠区,南田路松漱前9号之2号,113.261718,23.097585
全家便利店(祈乐苑店),全家,海珠区,怡乐路70号大院B区101房105,113.288086,23.096174
全家便利店(天誉商务大厦店),全家,越秀区,东风东路753号天誉商务大厦东塔1层,113.306656,23.132112
全家便利店(国美·智慧城店),全家,海珠区,磨碟沙地铁站H口步行360米,113.346873,23.102556
全家便利店(唯品会总部大厦店),全家,海珠区,鼎新路128号唯品会总部大厦F1层,113.349369,23.10443
全家便利店(建中路三店),全家,天河区,柏朗奴商务大厦东北门旁,113.371105,23.1235
全家便利店(江北路店),全家,荔湾区,龙溪中路333号106室,113.203346,23.073975
全家便利店(花城大道三店),全家,天河区,珠光御景2期B区D栋北门旁,113.34846,23.116757
全家便利店(中山一路三店),全家,越秀区,中山一路24号中海锦城南苑,113.311845,23.129594
全家便利店(猎德晟府店),全家,天河区,猎德村复建房3区南门旁,113.337136,23.114247
全家便利店(华港商务大厦店),全家,天河区,华景路地铁站A口步行130米,113.358418,23.13378
全家便利店(粤胜广场店),全家,白云区,棠乐路181号(广州白云站地铁站D口步行130米),113.248669,23.19326
全家便利店(中医药大学第一附属医院店),全家,白云区,机场路与机场立交交叉口东40米,113.263942,23.157035
全家便利店(海富花园店),全家,海珠区,江燕路38号海富花园首层,113.27838,23.084126
全家便利店(保利克洛维店),全家,天河区,珠江新城华强路9号保利·克洛维时光里商场1层,113.319715,23.126382
全家便利店(杨箕店),全家,越秀区,杨箕村A区南门东80米,113.313656,23.126765
全家便利店(园西区店),全家,海珠区,新港西路135号园西区721栋104房,113.29161,23.094902
全家便利店(昌岗东路店),全家,海珠区,昌岗东路252-6号(昌岗地铁站B口步行140米),113.278722,23.09164
全家便利店(燕岭路店),全家,天河区,燕岭路202号东侧B栋105、106号,113.330569,23.161555
全家便利店(流花路店),全家,越秀区,流花路120号东方宾馆自编7号楼27号商铺,113.259275,23.140275
全家便利店(大家庭花园店),全家,海珠区,琶洲街道庭园路183号(琶洲地铁站D口步行490米),113.368852,23.09569
全家便利店(猎德大道店),全家,天河区,猎德大46号、48号首层101房自编104号,113.333841,23.123597
全家便利店(鱼珠港北区店),全家,黄埔区,黄埔大道东823号居然之家(广州家居生活MALL)对面,113.418535,23.102335
全家便利店(天诚广场店),全家,天河区,龙口东路344号101(达芬尼斯旁),113.341259,23.142225
全家便利店(富力盈丰大厦店),全家,天河区,珠江新城华强路富力盈丰大厦118号,113.316787,23.125853
全家便利店(隆德大厦店),全家,天河区,天河路371号隆德大厦F1层,113.330356,23.133746
全家便利店(客村店),全家,海珠区,新港中路381号(客村地铁站A口步行120米),113.321978,23.09647
全家便利店(保利国际广场店),全家,海珠区,阅江中路686号105室,113.371769,23.102859
全家便利店(合生广场店),全家,海珠区,广州大道南249号合生广场北区F1层,113.315113,23.08576
全家便利店(广州奥林匹克花园店),全家,番禺区,如意路34号,113.306688,23.045318
全家便利店(B.I.G海珠湾艺术园区店),全家,海珠区,振兴大街2号BIG大干围艺术园区自编6号,113.2945,23.055689
全家便利店(广州东站三店),全家,天河区,火车东站1楼E区A-15,113.324684,23.149182
全家便利店(生物岛店),全家,海珠区,国际生物岛螺旋四路5号1层104单元,113.370645,23.059703
全家便利店(融穗华府店),全家,荔湾区,金融街·融穗华府西南门西北80米,113.23868,23.066879
全家便利店(陶育店),全家,天河区,陶育路113号,113.344499,23.130087
全家便利店(新港中路店),全家,海珠区,新港中路368号鸿运花园(客村地铁站D口步行260米),113.323439,23.095971
全家便利店(新棠东东路店),全家,天河区,棠东东路3号A-107房,113.389578,23.125833
全家便利店(工贸学院店),全家,天河区,广州大道北与牛利岗北街交叉口东南200米,113.320825,23.17227
全家便利店(璟泰大厦店),全家,越秀区,梅花村街道广州大道中293号外商新天地,113.3146,23.124974
全家便利店(保利世贸店),全家,海珠区,新港东路1020号保利世贸D座1层(琶洲地铁站D口步行380米),113.366947,23.095541
全家便利店(凯利广场店),全家,天河区,黄埔大道872号凯利广场首层106号铺,113.350635,23.124898
全家便利店(自由里店),全家,花都区,新雅街道自由人花园二街3号122铺,113.222873,23.342485
全家便利店(雅居乐店),全家,番禺区,观景北街103号,113.365419,23.010685
全家便利店(广州国际港航中心店),全家,黄埔区,黄埔大道东983号广州国际港航中心F1层,113.435151,23.097293
全家便利店(锐丰广场店),全家,黄埔区,荔红路16号锐丰广场F1层(香雪地铁站出入口旁),113.500949,23.173174
全家便利店(环球贸易中心店),全家,海珠区,新港东路148号环球贸易中心F1层,113.34231,23.097949
全家便利店(中山大道店),全家,天河区,中山大道西186号东方都会广场1层,113.361161,23.133591
全家便利店(建华汇店),全家,番禺区,大石街道建华汇商业中心B座,113.315698,23.023898
全家便利店(地铁设计大厦店),全家,白云区,云城东路16号,113.283271,23.198441
全家便利店(保利中汇广场店),全家,天河区,林和西路153-157号保利中汇广场公寓楼1层105-106,113.323582,23.148235
全家便利店(国翔科汇店),全家,天河区,新岑四路24号108房,113.408226,23.165031
全家便利店(纵横广场店),全家,海珠区,新港中路456号纵横广场1F层,113.330126,23.095846
全家便利店(悦汇城店),全家,荔湾区,西湾路150号悦汇城1层1A014号单元,113.243419,23.148904
全家便利店(广州医科大学附属市八医院店),全家,白云区,华英路8号(市八医院门诊大厅一楼),113.286882,23.234951
全家便利店(螺旋大道店),全家,海珠区,星岛环南路18号(官洲地铁站B口步行440米),113.379195,23.067369
全家便利店(南丰汇二店),全家,海珠区,新港东路618号620号会展南一路1号3号101房自编号F108单元,113.357917,23.097843
全家便利店(豪利大厦店),全家,花都区,镜湖大道18号豪利大厦F1层,113.251225,23.359599
全家便利店(吉祥北园店),全家,番禺区,洛浦街洛溪新城吉祥北道190号,113.299618,23.04304
全家(广州白云国际机场T3-B913登机口店),全家,白云区,仁胜街91号,113.323109,23.364742
全家便利店(基盛万科里店),全家,番禺区,兴泰路296号万科基盛广场C区C1-23、24,113.38755,22.930927
全家便利店(黄埔花园店),全家,黄埔区,丰乐南路428号432号101-102号,113.456757,23.099538
全家便利店(大岗路店),全家,天河区,车陂北街75号,113.39538,23.12543
全家便利店(合生骏景广场店),全家,天河区,中山大道西1138号合生骏景广场F1层,113.381864,23.125102
全家便利店(棠馨北店),全家,天河区,棠馨北二街1号102铺109铺,113.412718,23.15385
全家便利店(学艺路店),全家,番禺区,番禺区学艺路126号,113.349097,22.976048
全家便利店(海珠御景湾店),全家,海珠区,南州路御景大街20号24号首层自编之四,113.33899,23.050954
全家便利店(岳洲路二店),全家,天河区,五山岳洲路55号首层2号铺,113.353937,23.152206
全家便利店(开泰大道三店),全家,黄埔区,开泰大道26号102房,113.467481,23.162423
全家便利店(君立国际店),全家,白云区,同宝路78号君立国际公寓,113.330196,23.207261
全家便利店(天河客运站店),全家,天河区,天源路与元岗横路交叉口北60米,113.344361,23.170992
全家便利店(亚运大道二店),全家,番禺区,大龙街城区大道313号1层101号商铺,113.405852,22.937485
全家便利店(平康路店),全家,番禺区,环城中路2-6号,113.371048,22.938472
全家便利店(汇田大厦店),全家,天河区,汇田大厦一楼A108(东圃地铁站B口旁),113.40151,23.110183
全家便利店(百奥总部店),全家,天河区,天坤三路123号百奥总部大楼101房,113.399517,23.139425
全家便利店(广州开发区科技企业加速器D区店),全家,黄埔区,开源大道11号加速器D栋107室3房,113.49816,23.153037
全家便利店(万胜广场店),全家,海珠区,新港东路1220-1238号万胜广场购物中心B1层B125号,113.383897,23.096068
全家便利店(保泰广场店),全家,黄埔区,保泰广场写字楼西门旁,113.453482,23.108425
全家便利店(革新店),全家,海珠区,革新路204-206号,113.255593,23.083632
全家便利店(新世界2店),全家,白云区,岭南新世界集善街21-67号(自编2C区12-15栋)首层65、67号,113.292293,23.232166
全家便利店(岭南电商园店),全家,番禺区,岭南国际电子商务产业园东门旁,113.317846,23.038769
全家便利店(会江店),全家,番禺区,大石街石北工业路644号18栋1层108,113.287458,23.01508
全家便利店(航海学院店),全家,海珠区,琶洲街道,113.396815,23.088805
全家便利店(珊瑚湾畔店),全家,番禺区,洛浦街沙溪大道381号珊瑚道18号103肉菜场自编1铺,113.34814,23.034201
全家福便利店(黄猄坳路店),全家,天河区,兴华街黄猄坳上街78号101档家家福便利店,113.31931,23.175159
全家便利店(金山谷店),全家,番禺区,东环街金山谷东艺路28、30、32号,113.343189,22.970532
全家便利店(杨青路店),全家,海珠区,杨青路21号201房自编-2,113.386656,23.094436
全家便利店(南浦里店),全家,番禺区,洛浦街南浦东乡村南桂路68号1栋120号星誉国际公寓,113.293328,23.034533
全家便利店(黄埔大道东店),全家,黄埔区,黄埔大道东路918号101房(103房),113.427147,23.099163
全家便利店(星际云汇店),全家,黄埔区,开创大道2155号108房-109房,113.50063,23.17199
全家便利店(中大东校园行政楼店),全家,番禺区,大学城外环东路132号中山大学(广州校区东校园)行政楼A座一楼,113.391187,23.068716
全家便利店(华南理工店),全家,番禺区,大学城外环东路382号华南理工大学南校区华南理工大学大学城校区学生公寓C17号楼附近,113.401869,23.051078
全家便利店(开发区医院店),全家,黄埔区,友谊路196号,113.529884,23.057257
全家便利店(万博二路店),全家,番禺区,南村镇兴南大道万博二路B1栋69号,113.347579,23.008313
全家便利店(开泰大道店),全家,黄埔区,萝岗街道开泰大道59号自编1栋103号商铺,113.486128,23.163694
全家便利店(金山谷二店),全家,番禺区,东艺路135号商业3栋102号,113.345309,22.978278
全家便利店(万胜汇店),全家,海珠区,新港东路70号之二自编015号商铺,113.383919,23.096015
全家(广州白云国际机场T2-A146登机口店),全家,花都区,广州白云国际机场二号航站楼T2东五指廊三层E53R41商铺(空港机场),113.310301,23.394665
全家便利店(开泰大道二店),全家,黄埔区,开泰大道22号JIC创金国际中心,113.459807,23.162506
全家便利店(天泰一路店),全家,黄埔区,天泰一路2号自编六栋106室,113.465259,23.16218
全家便利店(海大科学园店),全家,番禺区,大观园街320号,113.44755,23.026262
全家(广州白云国际机场T2免税集中区店),全家,花都区,广州白云国际机场二号航站楼T2国际出发3层T23R92,113.308326,23.396402
全家便利店(珠宝产业园店),全家,番禺区,福龙路115号,113.331184,22.919147
全家便利店(新花街店),全家,花都区,新花街新华街19-6-7,113.217206,23.380878
全家便利店(金象中路店),全家,南沙区,金茂西街一街2号101房自编4-2铺,113.519309,22.781437
全家便利店(丽江花园二店),全家,番禺区,洛浦街南浦岛丽江花园丽茹楼商铺A10号,113.300342,23.034139
全家便利店(越秀·滨海御城店),全家,南沙区,丰庭北街11号海祥西街1号125-126号铺,113.539658,22.790422
全家百货(连馨分店),全家,花都区,狮岭镇新扬十二队横新南街31号,113.201025,23.477821
全家便利店(白云机场八店),全家,白云区,常兴路11号,113.32079,23.36933
全家便利店(希音总部店),全家,番禺区,汉溪大道东388号四海城商业广场5栋101房,113.35134,23.004927
全家便利店(丰邦智造园店),全家,番禺区,石碁镇莲运一横路16号5号厂房105单元,113.447505,22.943847
全家便利店(番禺中心医院店),全家,番禺区,福愉东路与德信路交叉口南260米,113.374807,22.909991
全家便利店(阳光倚翠店),全家,花都区,玫瑰路17-24号,113.215586,23.408548
全家便利店,全家,南沙区,顺福路与广盾路交叉口西南140米,113.528793,22.827195
全家乐便利店,全家,荔湾区,芳村大冲口墩头西后围12号,113.241734,23.08768
全家福便利店(夏良良溪大街店),全家,白云区,太和镇夏良村聚龙街南一巷3号温莎公寓楼下,113.304198,23.28866
全家便利店(南方五院一店),全家,从化区,从城大道294号,113.571624,23.549395
全家亲便利店,全家,白云区,嘉禾街永嘉路6号6楼12房,113.2925,23.254658
全家便利店(广东行政职业学院店),全家,白云区,现龙街南24号,113.426462,23.368784
全家福便利店(平西村西村路店),全家,花都区,花山平西村二队,113.26169,23.421968
全家便利店(华文航空学校店),全家,花都区,炭步镇兴华路6号广东华文航空艺术学校(花都校区),113.115125,23.325775
全家百货分店,全家,花都区,横岭四巷与横岭七巷交叉口东260米,113.141072,23.466574
全家福便利店(方中三路店),全家,增城区,新塘镇方中三路广州腾宏纺织服装有限公司,113.651846,23.147307
全家乐生活超市(金狮大道东店),全家,花都区,新民沉龙路与284县道交叉口西南80米,113.218319,23.470554
全家福便利超市(东文三街店),全家,番禺区,沙涌村保境路(百兴隆对面),113.426435,22.954786
全家鲜肉(化龙店),全家,番禺区,宝堂路31号,113.455103,23.041649
全家福超市(康乐西约大街店),全家,海珠区,康乐村中约南新街47号一楼,113.30098,23.087473
全家福(伟荣商业广场店),全家,番禺区,双桂路38号伟荣商业广场F1层,113.34907,23.014883
全家福烟酒(夏良大街店),全家,白云区,太和镇夏良村银龙花园(龙归地铁站A口步行250米),113.302575,23.288125
全家福红木馆,全家,白云区,黄石西路428号金国广场第六空间,113.253905,23.203732
全家美发,全家,海珠区,富基广场1期(市二宫地铁站A口步行470米),113.273365,23.107852
全家福生活超市(海珠景业创意园店),全家,海珠区,南洲街道景业工业区5号楼,113.321101,23.063994
元气妈咪全家母婴生活馆(松洲店),全家,白云区,松洲螺涌榕桂街东一巷25号,113.228729,23.144828
全家韩食屋(赤沙南约新街店)(暂停营业),全家,海珠区,南约新街1-4,113.355504,23.084886
全家福服饰,全家,番禺区,沿沙路36号宝顿商务中心,113.293475,23.038175
全家康环洲护理站(城西花园店),全家,白云区,兴达街52号(爱顿大厦与洲心烧肉中间),113.206263,23.156617
J 全家集便利店(鱼珠时光店),全家,黄埔区,一直路与黄埔大道东交叉口南160米,113.417275,23.101775
One家全家福摄影(华南总店),全家,天河区,黄埔大道西118号勤建大厦22楼,113.338733,23.126076
全家福烟酒(站前路店),全家,花都区,站前路32-14号,113.203578,23.383326
全家乐生活超市(广从九路店),全家,白云区,布丁街与健行路交叉口西南160米,113.464302,23.409798
好妈妈全家福东北菜(黄石路店),全家,白云区,黄园路131号101室,113.268025,23.206225
钱谷谷全家衣库,全家,番禺区,市莲路209号A14铺,113.48435,22.969199
广州市花都区秀全家群商店,全家,花都区,松桥路与朱贵路交叉口东南20米,113.167115,23.376532
全家福艺术廊,全家,番禺区,钟村街钟一南庄新区路1号之一,113.318306,22.969545
全家福(富华园小区店),全家,番禺区,市桥富华中路60号富华园小区,113.364436,22.946905
佳福便利店,全家,白云区,沙太北路234号,113.337595,23.192194
妈妈糖全家照相馆,全家,海珠区,新港东路与新洲路交叉口西80米,113.408325,23.084975
爱伢吖全家健康成长中心(社区医院分店),全家,南沙区,进港大道56-4号(社区医院旁),113.549092,22.800158
雅集摄影证件照形象照宝宝照全家福,全家,番禺区,市桥街道光明北路225号银都大厦1602室,113.361375,22.948325
全家福麻辣烫麻辣香锅,全家,花都区,新华街道商业大道96-7号,113.224107,23.382069
功夫肩颈金家玉(石楼第十二分店),全家,番禺区,石楼镇黄山路38号,113.488488,22.966654
暮光摄影.时尚写真.舞蹈摄影.全家福,全家,白云区,望岗工业二路52号1栋225(铁锅年代左边电梯上二楼左转),113.279015,23.242159
7-ELEVEn(交易广场店),7-Eleven,越秀区,北京街道东风中路268号交易广场1楼110号铺,113.263012,23.131246
7-ELEVEn(中山三路店),7-Eleven,越秀区,中山三路76号(烈士陵园地铁站D口步行410米),113.280911,23.127191
7-ELEVEn(站前二店),7-Eleven,荔湾区,站前路96号,113.251286,23.143245
7-ELEVEn(文昌阁店),7-Eleven,荔湾区,文昌南路139号(长寿路地铁站A口步行180米),113.243892,23.117649
7-ELEVEn(人民中第二分店),7-Eleven,荔湾区,人民中路555号(西门口地铁站A口步行330米),113.253625,23.123275
7-ELEVEn(时代中心店),7-Eleven,越秀区,东风中路410时代地产中心F1层,113.271613,23.130392
7-ELEVEn(八旗店),7-Eleven,越秀区,沿江中路321-327号临江国际商务楼10,113.276105,23.115889
7-ELEVEn(晓港店),7-Eleven,海珠区,晓港中马路37-1号(晓港地铁站D口步行240米),113.283608,23.092044
7-ELEVEn(花地大道北店),7-Eleven,荔湾区,花地大道北19号(芳村地铁站A2口步行110米),113.235625,23.097207
7-ELEVEn(恒润广场店),7-Eleven,越秀区,北京路238号恒润广场首层,113.270295,23.123045
7-ELEVEn(倾城大厦店),7-Eleven,越秀区,盘福路79号(越秀公园地铁站A口步行400米),113.260894,23.135958
7-ELEVEn(天誉商务大厦店),7-Eleven,越秀区,东风东路753号,113.30658,23.132102
7-ELEVEn(麓景店),7-Eleven,越秀区,环市中路309号28-29号,113.27756,23.140081
7-ELEVEn(千福家店),7-Eleven,越秀区,吉祥路48号(公园前地铁站出入口步行260米),113.265594,23.127825
7-ELEVEn(下塘西店),7-Eleven,越秀区,下塘西路10号1层第6号(小北地铁站D口步行450米),113.273768,23.142336
7-ELEVEn(中华广场店),7-Eleven,越秀区,中山三路33号中华广场第二层2002铺自编第2018号商铺,113.282366,23.125931
7-ELEVEn(第三十一分店),7-Eleven,越秀区,广州宾馆北京路步行街海珠广场地铁站店南门西北70米,113.265173,23.116243
7-ELEVEn(中泰国际广场店),7-Eleven,天河区,林和西路159号中泰北塔1层(广州东站地铁站B1口旁),113.32278,23.150488
7-ELEVEn(惠福东店),7-Eleven,越秀区,惠福东路548-552号利福大厦商场122号,113.26622,23.120913
7-ELEVEn(人民南历史文化街区店),7-Eleven,越秀区,沿江西路103号,113.255331,23.109058
7-ELEVEn(北京路步行街店),7-Eleven,越秀区,沿江中路259号首层自编101号商铺,113.272616,23.115395
7-ELEVEn(嘉和苑店),7-Eleven,越秀区,东风西路148广州汇丰大厦F1层,113.251003,23.132824
7-ELEVEn(北较场路店),7-Eleven,越秀区,北较场路(小北地铁站A口步行220米),113.274513,23.138167
7-ELEVEn(0041福今路店),7-Eleven,越秀区,梅花街道东风东路770号,113.302502,23.131551
7-ELEVEn(荔湾店),7-Eleven,荔湾区,荔湾路102号奥宝全新商务中心104,113.244708,23.131944
7-ELEVEn(较场东路店),7-Eleven,越秀区,较场东路15号大院自编1011号商铺,113.284969,23.125313
7-ELEVEn(西华路店),7-Eleven,越秀区,西华路捶帽新巷1号103,113.248349,23.131675
7-ELEVEn(第十七店),7-Eleven,越秀区,流花路1号中国大酒店商业大厦F1层,113.261263,23.13934
7-ELEVEn(西湾大厦店),7-Eleven,荔湾区,西湾路80西湾大厦1层(西村地铁站C口步行140米),113.242463,23.143276
7-ELEVEn(西湾店),7-Eleven,荔湾区,西湾路104、108、112号1层107号,113.242757,23.144494
7-ELEVEn(河北大厦店),7-Eleven,白云区,广园中路205号(中医药大学地铁站A1口步行270米),113.268275,23.158838
7-ELEVEn(紫荆街店),7-Eleven,天河区,林和中路140号紫荆街1之1号1层,113.326611,23.145278
7-ELEVEn(中海花城湾店),7-Eleven,天河区,花城大道88号优托邦购物中心2座129A铺,113.332951,23.117701
7-ELEVEn(花城汇店),7-Eleven,天河区,黄埔大道西74号,113.324653,23.124898
7-ELEVEn(天润大楼店),7-Eleven,荔湾区,中山八路48号首层自编之一,113.235481,23.125714
7-ELEVEn(白云大厦店),7-Eleven,越秀区,白云路113号102房自编B单元,113.285275,23.120225
7-ELEVEn(西槎店),7-Eleven,白云区,西槎路226-228号之3号,113.235154,23.161809
7-ELEVEn(广州大道中辅路店),7-Eleven,天河区,广州大道中988号圣丰广场,113.316049,23.137803
7-ELEVEn(恒荔湾畔店),7-Eleven,荔湾区,芳村大道中304号,113.231886,23.100973
7-ELEVEn(珠玑路店),7-Eleven,荔湾区,珠玑路29号北铺(黄沙地铁站E口步行310米),113.243342,23.10939
7-ELEVEn(长堤大马路店),7-Eleven,越秀区,长堤大马路370号首层(一德路地铁站A口步行410米),113.256755,23.109775
7-ELEVEn(陈家祠站店),7-Eleven,荔湾区,地铁A出口土兴巷路口(陈家祠地铁站D口旁),113.245855,23.125995
7-ELEVEn(沿江店),7-Eleven,越秀区,沿江东路413号1层,113.283199,23.114218
7-ELEVEn(富力广场店),7-Eleven,荔湾区,龙津西路217号102,113.238108,23.122626
7-ELEVEn(恒福路店),7-Eleven,越秀区,登峰街道江户前寿司淘金北小区,113.28925,23.143428
7-ELEVEn(晓园店),7-Eleven,海珠区,细岗路1号101(晓港地铁站C口步行190米),113.280942,23.091986
7-ELEVEn(嘉汇华庭店),7-Eleven,海珠区,前进路65号金谷广场第1层街铺,113.276292,23.101592
7-ELEVEn(鹭江店),7-Eleven,海珠区,新港西路168号之5(鹭江地铁站C口步行220米),113.305451,23.094776
7-ELEVEn(同福中路店),7-Eleven,海珠区,同福西路与公所直街交叉口东180米,113.255986,23.103317
7-ELEVEn(西门口广场住宅楼店),7-Eleven,荔湾区,中山七路50号西门口广场住宅楼F1层,113.253144,23.126235
7-ELEVEn(和业广场店),7-Eleven,荔湾区,康王中路488号和业广场1层,113.247419,23.122449
7-ELEVEn(江燕店),7-Eleven,海珠区,江燕路182-2号(江泰路地铁站E1口步行220米),113.278117,23.079286
7-ELEVEn(云鹤北街店),7-Eleven,越秀区,先烈中路112、114号102房,113.301925,23.142691
7-ELEVEn(维雅苑店),7-Eleven,荔湾区,荔湾路119-14号(彩虹桥地铁站D口步行340米),113.244046,23.12999
7-ELEVEn(花城广场店),7-Eleven,天河区,花城广场花城汇中区B1层C001,113.324649,23.121287
7-ELEVEn(淘金店),7-Eleven,越秀区,[],113.286081,23.143648
7-ELEVEn(江南西店),7-Eleven,海珠区,江南西路23-7号(江南西地铁站出入口步行120米),113.27233,23.095312
7-ELEVEn(第八十六店),7-Eleven,海珠区,燕翔路219号南景园,113.275435,23.079551
7-ELEVEn(汇锦新天地店),7-Eleven,白云区,松南路1号(罗冲围客运站旁),113.222559,23.149457
7-ELEVEn(梅东路店),7-Eleven,越秀区,中山一路42号中山一路42号大院,113.307629,23.128259
7-ELEVEn(执信南1200店),7-Eleven,越秀区,执信南路105号对面路口小区西门旁,113.292254,23.128013
7-ELEVEn(第一百九十一分店),7-Eleven,海珠区,前进路23号(市二宫地铁站E口步行330米),113.272145,23.10372
7-ELEVEn(新天地店),7-Eleven,海珠区,宝业路6-18号新天地广场1层101号之1号,113.266102,23.092645
7-ELEVEn(金羊路),7-Eleven,越秀区,中山一路51号之14号(名品居东侧),113.309975,23.127725
7-ELEVEn(穗丰大厦店),7-Eleven,越秀区,先烈中路75号穗丰大厦1层西南角,113.293916,23.136853
7-ELEVEn(华标·涛景湾店),7-Eleven,海珠区,滨江中路486号,113.282774,23.109379
7-ELEVEn(沙面岛店),7-Eleven,荔湾区,沙面北街71-1号(黄沙地铁站出入口步行490米),113.243263,23.107963
7-ELEVEn(广州友谊商店南区店),7-Eleven,越秀区,环世东路371号世界贸易中心大厦1层,113.287275,23.136625
7-ELEVEn(远景店),7-Eleven,白云区,棠景街远景路168号时代商业时代中心B栋1层17号,113.255082,23.173042
7-ELEVEn(缤纷天地店),7-Eleven,白云区,云城西路880号缤纷天地F1层,113.268656,23.180348
7-ELEVEn(香水湾店),7-Eleven,天河区,体育西横街115-125-129-139号首层自编11,113.325197,23.129066
7-ELEVEn(后滘西大街店),7-Eleven,海珠区,洋湾东路与二街交叉口东280米,113.318196,23.073871
7-ELEVEn(家信商业店),7-Eleven,海珠区,工业大道76-80号家信商业中心A018,113.257586,23.091606
7-ELEVEn(儿童医院店),7-Eleven,越秀区,人民中路310号1层,113.253097,23.119455
7-ELEVEn(南方同创汇店),7-Eleven,越秀区,广州大道中289号印务楼102-103室,113.314375,23.122875
7-ELEVEn(丽和华庭店),7-Eleven,荔湾区,东漖北路76号111房,113.230155,23.096524
7-ELEVEn(佳兆业广场店),7-Eleven,天河区,体育西路191号佳兆业广场F1层127,113.321202,23.139754
7-ELEVEn(耀中广场店),7-Eleven,天河区,林和西路9号耀中广场F1层,113.32364,23.142473
7-ELEVEn(流花月岛),7-Eleven,越秀区,流花路109号之1-3方圆·流花月岛,113.253661,23.139905
7-ELEVEn(乐嘉店-0527店),7-Eleven,白云区,机场路西乐嘉路8号(乐嘉路地铁站D口步行390米),113.258418,23.168285
7-ELEVEn(中海花湾店),7-Eleven,荔湾区,鹤洞路217中海花湾壹号锦御一街1号,113.237737,23.068747
7-ELEVEn(敦和店),7-Eleven,海珠区,敦和路189号广州市海珠科技创业园第8栋104-105铺,113.319248,23.08819
7-ELEVEn(置地大厦店),7-Eleven,越秀区,较场西路6号置地大厦F1层,113.283578,23.121869
7-ELEVEn(嘉星广场店),7-Eleven,越秀区,白云路22号嘉星广场1层,113.282506,23.117998
7-ELEVEn(广怡大厦店),7-Eleven,越秀区,华乐路51号华乐大厦1层西南侧,113.288125,23.134008
7-ELEVEn(建滔广场店),7-Eleven,天河区,新城花城大道18号建滔广场1层自编02单元,113.31746,23.118976
7-ELEVEn(大德路店),7-Eleven,越秀区,大德路116号1层116-4、118-T4,113.25709,23.11751
7-ELEVEn(万菱广场店),7-Eleven,越秀区,解放南路39号万菱广场F1层,113.262719,23.11515
7-ELEVEn(多宝路店),7-Eleven,荔湾区,多宝路72号02、74号1层,113.234446,23.116539
7-ELEVEn(中泰2店),7-Eleven,天河区,林和西路159号中泰国际广场,113.323163,23.149743
7-ELEVEn(广仁路4号之1-6号大院店),7-Eleven,越秀区,北京街道广仁路北京路步行街内(北侧),113.267813,23.128737
7-ELEVEn(五月花商业广场店),7-Eleven,越秀区,中山五路68号五月花商业广场1层128号铺位,113.26723,23.126008
7-ELEVEn(湖天宾馆店),7-Eleven,越秀区,东风西路156号湖天宾馆首层之一自编2,113.253276,23.132506
7-Eleven小食堂(创举大厦),7-Eleven,越秀区,越秀南路16号(团一大广场地铁站A口步行470米),113.277335,23.122389
7-ELEVEn(棠安路店),7-Eleven,白云区,棠安路1-6号A区第22号,113.257422,23.186635
7eleven(广武店),7-Eleven,天河区,天河路603号莱福广场F1层,113.33883,23.134959
7-ELEVEn(万联购物中心店),7-Eleven,海珠区,万寿路31号,113.280225,23.102661
7-ELEVEn(越秀·岭南湾畔店),7-Eleven,荔湾区,西湾路湾畔大27号、29号、31、33号首层自编101单元,113.239346,23.150529
7-ELEVEn(富豪酒店-1270店),7-Eleven,越秀区,仓边路33号富豪酒店一楼大堂,113.272293,23.127017
7-ELEVEn(越秀公园店),7-Eleven,越秀区,地铁2号线越秀公园站C出口,113.261014,23.141138
7-ELEVEn(荔港南湾店),7-Eleven,荔湾区,南岸路67号荟文四街2号首层商铺,113.229964,23.135844
7-ELEVEn(广州国际轻纺城店),7-Eleven,海珠区,广州国际轻纺城E区3层,113.296596,23.087633
7-ELEVEn(林乐路店),7-Eleven,天河区,林和东路121号101铺102铺,113.327989,23.143684
7-ELEVEn(滨江壹号店),7-Eleven,海珠区,建基路,113.288349,23.099604
7-ELEVEn(石榴岗路店),7-Eleven,海珠区,石榴岗路7-13号,113.333914,23.090304
7-ELEVEn(潭村北街店),7-Eleven,天河区,花城大道767号珠光·壹坊ONE MALL138铺,113.348547,23.119269
7-ELEVEn(粤海·得邻店),7-Eleven,越秀区,珠光路43号粤海·得邻F1层,113.273408,23.118522
7-ELEVEn(芳村地铁站店),7-Eleven,荔湾区,芳村大道中6号(芳村地铁站A1口旁),113.235963,23.098019
7-ELEVEn(白云汇广场店),7-Eleven,白云区,黄石东路88号白云汇广场首层W11号,113.269675,23.203025
7-ELEVEn(粤汉路店),7-Eleven,天河区,地铁3号线五山站(五山地铁站C口步行60米),113.351701,23.152722
7-ELEVEn(东照大厦店),7-Eleven,越秀区,东风中路510-512号东照大厦1层1号,113.276508,23.131272
7-ELEVEn(银山大厦店),7-Eleven,越秀区,仓边路93-95号银山大厦,113.271312,23.129018
7-ELEVEn(越秀·星汇海珠湾店),7-Eleven,海珠区,星曜街9号星汇海珠湾C1栋1层101号,113.266693,23.07187
7-ELEVEn(宜安广场店),7-Eleven,越秀区,建设六马路33宜安广场1层102号,113.285063,23.13457
7-ELEVEn(陈家祠地铁站店),7-Eleven,荔湾区,康王北路903-2327号,113.246522,23.126592
7-ELEVEn(滨江1933店),7-Eleven,海珠区,南华中路407号101室,113.262771,23.108895
7-ELEVEn(永泰利都店),7-Eleven,白云区,丛云路839号利都商务中心首层01号,113.30121,23.218467
7-ELEVEn(永胜店),7-Eleven,越秀区,大沙头永胜上沙路52号之一之二,113.28643,23.118884
7-ELEVEn(二沙岛店),7-Eleven,越秀区,晴波路43号,113.309691,23.107755
7-ELEVEn(天河南步行街店),7-Eleven,天河区,天河南一路96号101房1层,113.326144,23.130828
7-ELEVEn(广州·渔人码头店),7-Eleven,番禺区,北环路88号五湖四海渔人码头兰桂坊B1层,113.29545,23.049789
7-ELEVEn(白马服装城店),7-Eleven,越秀区,流花街道站南路16号白马大厦一楼外围自编号北6号,113.253812,23.147193
7-ELEVEn(乐陶店),7-Eleven,白云区,心谊路12号金迪城市花园1层,113.256916,23.168805
7-Eleven小食堂(体育西店),7-Eleven,天河区,地铁1号线体育西站G出口(体育西路地铁站A口旁),113.321071,23.13139
7-ELEVEn(安华汇店),7-Eleven,白云区,白云区广东省广州市安华汇北馆外广场(9号门)对面,113.298168,23.217455
7-ELEVEn(富力·环市西苑店),7-Eleven,荔湾区,环市西路35之22号102号,113.240117,23.141533
7-ELEVEn(中港皮具城店),7-Eleven,白云区,三元里大道11-21号越秀·中港皮具城,113.261675,23.153425
7-ELEVEn(新光商务店),7-Eleven,越秀区,北京路3号新光商务大厦1层A,113.270682,23.115481
7-ELEVEn(广州区庄地铁站桔子酒店店),7-Eleven,越秀区,环市东路422号骏星酒店1层A-1号,113.296393,23.134144
7-ELEVEn(华南影都店),7-Eleven,荔湾区,环市西路133号新其路鞋业广场F1层,113.24862,23.14742
7-ELEVEn(保利克洛维店),7-Eleven,天河区,华穗路406号之二保利克洛维一层102铺,113.319725,23.126875
7-ELEVEn(三元里大道),7-Eleven,白云区,三元里大道838-2号,113.251639,23.171826
7-ELEVEn(悦安店),7-Eleven,海珠区,悦安花园4号之一,113.285608,23.086997
7-ELEVEn(沙面岛店),7-Eleven,荔湾区,沙面大街14号,113.243451,23.106271
7-ELEVEn(金沙汇店),7-Eleven,白云区,金沙洲路111号金沙汇F1层(横沙地铁站B口旁),113.206445,23.157909
7-ELEVEn(御金沙店),7-Eleven,白云区,浔洲街51号101房(浔峰岗地铁站B口步行50米),113.202238,23.164506
7-ELEVEn(尚明大厦店),7-Eleven,白云区,齐富路1号正颐中心(新市墟地铁站C口步行230米),113.264575,23.194825
7-ELEVEn(力迅上筑店),7-Eleven,天河区,马场路上筑街D3栋16之1坊,113.343112,23.115718
7-ELEVEn(大马站商业中心店),7-Eleven,越秀区,北京街道中山五路33号大马站商业中心5楼后楼梯,113.267841,23.125253
7-ELEVEn(红梅店),7-Eleven,海珠区,滨江东路1024-1026号江畔华庭,113.314366,23.104261
7-ELEVEn(VT101维多利广场店),7-Eleven,天河区,体育西路101号VT101维多利广场F1层,113.3209,23.134973
7-ELEVEn(中海花湾壹号店),7-Eleven,荔湾区,鹤洞路25号中海花湾壹号D区,113.242325,23.070408
7-ELEVEn(四季花园店),7-Eleven,荔湾区,花地大道中246号,113.232634,23.072125
7-ELEVEn(宝岗店),7-Eleven,海珠区,宝岗大道330号1层5号,113.263207,23.098279
7-ELEVEn(金纶大厦店),7-Eleven,荔湾区,荔湾路小梅大街4号东1层102A,113.246155,23.131266
7-ELEVEn(三元里大道辽宁大厦店),7-Eleven,越秀区,三元里大道辽宁大厦1层,113.254873,23.161439
7-ELEVEn(马棚岗店),7-Eleven,越秀区,中山二路马相棚岗24号首层,113.290912,23.125171
7-ELEVEn(铭丰广场店),7-Eleven,海珠区,芳园路72号铭丰广场(磨碟沙地铁站H口步行160米),113.344071,23.103155
7-ELEVEn(棠石店),7-Eleven,天河区,棠石路1号,113.367767,23.122351
7-ELEVEn(东风西路西场地铁站店),7-Eleven,荔湾区,东风西路D出口(西场地铁站F口旁),113.238163,23.137483
7-ELEVEn(美博城A座店),7-Eleven,越秀区,广园西路121号美博城A座F1层,113.251098,23.155444
7-ELEVEn(琶洲岛店),7-Eleven,海珠区,鼎新路128号唯品会总部大厦F1层,113.348625,23.103975
7-ELEVEn(富力御龙庭店),7-Eleven,越秀区,淘金东路128号首层,113.296279,23.142632
7-ELEVEn(百利广场店),7-Eleven,荔湾区,花地大道中66号荔胜广百广场F2层,113.233225,23.079075
7-ELEVEn(棠下智汇Park店),7-Eleven,天河区,广园东路博汇街6号B座首层S101号,113.375425,23.140825
7-ELEVEn(粤海壹桂府店),7-Eleven,越秀区,北京路23-29号粤海壹桂府,113.270037,23.117635
7-ELEVEn(广州白云万达广场店),7-Eleven,白云区,云城东路501号广州白云万达广场1F层,113.267456,23.173598
7-ELEVEn(绿地中央广场店),7-Eleven,黄埔区,在广东省广州市黄埔区科学大道80号d栋101,113.429978,23.163656
7-ELEVEn(海珠·合生生活天地店)(装修中),7-Eleven,海珠区,昌岗中路合生帝景国际188号一楼L1一111,113.275556,23.088889
7-Eleven小食堂(星汇国际店),7-Eleven,天河区,金穗路6号(杨箕东地铁站B口步行120米),113.316091,23.123771
7-ELEVEn(金沙路店),7-Eleven,海珠区,金沙路29-5号,113.256171,23.089947
7-ELEVEn(大荣酒店店),7-Eleven,天河区,林和西路196号(广州大荣酒店隔壁),113.319125,23.145583
7-ELEVEn(富力金禧店),7-Eleven,海珠区,南华中路276号富力金禧花园1层101房,113.260847,23.105541
7-ELEVEn(地铁龙溪店),7-Eleven,荔湾区,龙溪大道71号(龙溪地铁站C口旁),113.192085,23.066169
7-ELEVEn(越秀立方人才创新中心店),7-Eleven,越秀区,大德路318号金艺大厦1层A,113.262073,23.117943
7-ELEVEn(海珠同创汇店),7-Eleven,海珠区,上冲南约街22号自编纽约道1号102单元,113.31811,23.077446
7-ELEVEn(广州市儿童公园店),7-Eleven,白云区,白云公园地铁站B口,113.271253,23.181141
7-ELEVEn(盛大蓝庭店),7-Eleven,荔湾区,浣南东街48-52号盛大蓝庭(坑口地铁站D口旁),113.231675,23.078675
7-ELEVEn(沙园店),7-Eleven,海珠区,工业大道北112号海珠新天地B2层,113.260707,23.087504
7-Eleven小食堂(五羊华轩店),7-Eleven,越秀区,东泰路68号,113.310297,23.12527
7-ELEVEn(自动化大厦店),7-Eleven,越秀区,东风东路707号自动化大厦F1层,113.296629,23.131243
7-Eleven小食堂(龙津中),7-Eleven,荔湾区,康王中路488号和业广场B1层,113.246962,23.122893
7-ELEVEn(东急2店),7-Eleven,荔湾区,下九路90-92号东急新天地购物广场1层,113.248471,23.114265
7-ELEVEn,7-Eleven,海珠区,芳园路与海洲路交叉口西340米,113.340475,23.103775
7-ELEVEn(侨鑫·汇景新城柏菲美泉店),7-Eleven,天河区,汇景南路67-A6-1号,113.367726,23.148263
7-ELEVEn(合一国际店),7-Eleven,白云区,广州大道北1972-14,113.327894,23.192227
7-ELEVEn(富力城店),7-Eleven,白云区,均禾街道华灯街富力城南区丽城路5号,113.26078,23.243852
7-ELEVEn(新海Park店),7-Eleven,白云区,聚贤街5号(新海文化创意园)A2栋一层A2-101,113.300126,23.231291
7-ELEVEn(环汇商业广场店),7-Eleven,海珠区,新港东路1168号环汇商业广场北塔,113.379106,23.095963
7-ELEVEn(盈昊大厦店),7-Eleven,荔湾区,东漖北路472号102铺,113.230025,23.093625
7-ELEVEn(江南大道中江南商业街店),7-Eleven,海珠区,江南大道中348号(昌岗地铁站C2口步行140米),113.275976,23.092179
7-ELEVEn(官洲店),7-Eleven,海珠区,广州国际生物岛山地公园(官洲地铁站A口旁),113.37597,23.06738
7-ELEVEn(祥龙商业广场店),7-Eleven,天河区,天河北路181号祥龙花园,113.322019,23.141532
7-ELEVEn(绿地中央广场店),7-Eleven,黄埔区,联和街道科学大道111号,113.432067,23.163289
7-ELEVEn(尚岛国际店),7-Eleven,番禺区,洛浦街碧桂大道13号尚岛国际大厦首层第04号,113.293248,23.034151
7-ELEVEn(富力盈信大厦店),7-Eleven,天河区,华夏路28号富力盈信大厦首层102,113.321865,23.124903
7-ELEVEn(贵贤上品店),7-Eleven,荔湾区,华贵路1号贵贤上品1层16-18号,113.241618,23.120889
7-ELEVEn(时尚天河商业广场店),7-Eleven,天河区,天河路299号时尚天河商业广场B1层,113.327595,23.134079
7-ELEVEn(高德汇1031店),7-Eleven,天河区,花城大道86号科学城商业广场东翼102A,113.331123,23.118156
7-ELEVEn(中山大学国家大学科技园店),7-Eleven,海珠区,新港街道新港西路135号中山大学国家大学科技园A座711室,113.291614,23.092963
7-ELEVEn(翠逸家园店),7-Eleven,白云区,远景路景丽街1-13号翠逸家园,113.258197,23.171075
7-Eleven小食堂(时代广场店),7-Eleven,天河区,天河北路28-32号时代广场(天河北路店)F1层102,113.31743,23.140585
7-ELEVEn(花城路店),7-Eleven,花都区,花城路36-1号(花城路地铁站C口步行140米),113.213631,23.380712
7-ELEVEn(世纪云顶店),7-Eleven,海珠区,桃花街与金菊路交叉口西南50米,113.314217,23.100621
7-ELEVEn,7-Eleven,荔湾区,白鹤沙路与白鹤沙三街交叉口西北40米,113.223125,23.069425
7-ELEVEn(新花街店),7-Eleven,花都区,商业大道68-14号,113.217725,23.379082
7-ELEVEn(棠溪商务大厦店),7-Eleven,白云区,三元里大道1233号棠溪商务大厦1层,113.25075,23.180201
7-ELEVEn(中天购物城店),7-Eleven,天河区,天河北路233号中天购物城1F层112,113.325157,23.14265
7-ELEVEn(环球都会广场店),7-Eleven,天河区,花城大道68号环球都会广场F1层,113.327277,23.118139
7-ELEVEn(金升商务中心店),7-Eleven,荔湾区,逢源路130号103铺,113.239026,23.120995
7-ELEVEn(东南综合市场店),7-Eleven,天河区,东南·肉菜市场2门旁(棠地铁站D口步行120米),113.388347,23.131483
7-ELEVEn(悦汇时光店),7-Eleven,番禺区,桥南街逸祥大街120号,113.36076,22.905616
7-ELEVEn(大冈街店),7-Eleven,白云区,白云湖街道大冈街云湖电竞数字产业园,113.240968,23.209935
7-ELEVEn(番禺敏捷广场店),7-Eleven,番禺区,汉溪大道东与万博一路交叉口南120米,113.346225,23.002975
7-ELEVEn(保利大都汇店),7-Eleven,番禺区,钟村街汉兴中路41、43号首层,113.334406,22.994723
7-ELEVEn(悦和方店),7-Eleven,白云区,龙归街道龙悦新街156号悦和方首层103之L1-11A号商铺,113.321994,23.276359
7-ELEVEn(林和村),7-Eleven,天河区,林和街中怡城市花园23号01,113.32718,23.143068
7-ELEVEn(汇侨新城店),7-Eleven,白云区,新市镇汇侨路65-67单号102铺之一,113.258432,23.199226
7-ELEVEn(铂涛大厦店),7-Eleven,海珠区,新滘西路300号铂涛大厦F1层,113.286875,23.073825
7-ELEVEn(鸣翠花园店),7-Eleven,海珠区,工业大道南永翠路37号鸣翠花园4期,113.286223,23.067037
7-ELEVEn(广州阿里中心1390店),7-Eleven,海珠区,阅江西路540号广州阿里中心北塔01号铺位,113.347501,23.105223
7-ELEVEn(兴普紫园店),7-Eleven,黄埔区,观虹路4号,113.457401,23.167583
7-ELEVEn(华景锦苑店),7-Eleven,天河区,景邮路8号103、104铺,113.364394,23.138487
7-ELEVEn,7-Eleven,黄埔区,军校路与海虹路交叉口东60米,113.429258,23.083543
7-ELEVEn(新佰嘉广场店),7-Eleven,白云区,同和街道广州大道北2091号新佰嘉广场首层106,113.325388,23.198363
7-ELEVEn(世联空间店)(暂停营业),7-Eleven,海珠区,聚德路205世联空间B栋F1层,113.329174,23.080551
7-ELEVEn(金税股份店),7-Eleven,天河区,思成路41号B栋106号,113.422875,23.179675
7-ELEVEn(广州塔财富码头店),7-Eleven,海珠区,滨江东路与广州塔路交叉口西北20米,113.326841,23.107377
7-ELEVEn(高志大厦优托邦驿站店),7-Eleven,天河区,[],113.339903,23.126039
7-ELEVEn(新燕大厦店),7-Eleven,天河区,燕岭路93新燕大厦F1层(燕塘地铁站C口步行230米),113.328588,23.161264
7-ELEVEn(银禧花园分店),7-Eleven,海珠区,怡趣街80富力银禧花园A4-5栋1层106号,113.293874,23.101287
7-ELEVEn(江南苑店),7-Eleven,海珠区,宝业路532号江南苑,113.263012,23.091505
7-ELEVEn(浔峰岗北地铁站店),7-Eleven,白云区,汇才一街3号,113.20737,23.173013
7-ELEVEn(银汇大厦1594店),7-Eleven,天河区,龙怡路113号银汇华庭(华师地铁站E口步行460米),113.344745,23.143884
7-ELEVEn(润泰大厦店),7-Eleven,海珠区,江泰路51号润泰大厦1层11号,113.282985,23.082546
7-ELEVEn(时代玫瑰园店),7-Eleven,白云区,黄边北路向荣街200号时代玫瑰园J区140号,113.285019,23.223679
7-ELEVEn(广州之窗商务港A区店),7-Eleven,海珠区,振兴大街18号广州之窗商务港A区F1层,113.31292,23.053534
7-ELEVEn(时代玫瑰园店),7-Eleven,白云区,黄边北路151号时代玫瑰园三期,113.284957,23.222724
7-ELEVEn(先烈中路100号大院店),7-Eleven,越秀区,先烈中路100号先烈中路100号大院F1层,113.298425,23.138325
7-Eleven小食堂(鹏源大厦店),7-Eleven,越秀区,小北路187号鹏源发展大厦F1层,113.271598,23.135447
7-ELEVEn(大塘地铁),7-Eleven,海珠区,金紫里与金紫里直街交叉口西80米,113.287375,23.080375
7-Eleven小食堂(高德春店),7-Eleven,天河区,高德置地广场写字楼A座西门旁,113.321751,23.120088
7-Eleven小食堂(合景店),7-Eleven,天河区,华夏路8号合景国际金融广场1层,113.322112,23.116601
7-ELEVEn(三银大厦店),7-Eleven,天河区,珠江新城华就路12号三银大厦103号,113.319492,23.115932
7-Eleven小食堂(体育东路店),7-Eleven,天河区,体育东路34号(体育中心地铁站出入口步行460米),113.328672,23.130152
7-Eleven小食堂(欣凯科创园店),7-Eleven,白云区,石槎路聚源街50号B栋111号,113.236168,23.184371
7-ELEVEn(电信大厦店),7-Eleven,天河区,林和中路与东站路交叉口东南160米,113.326582,23.147437
广州白云万象汇-7-ELEVEn(广州白万象汇店),7-Eleven,白云区,棠乐路与棠涌谢家中街交叉口东120米,113.257661,23.19475
7-ELEVEn(富力院士庭店),7-Eleven,天河区,东莞庄路72号北区商场首层172B铺,113.336828,23.152847
7-ELEVEn(金雅苑三期店),7-Eleven,海珠区,滨江东路滨江1号购物商场,113.293562,23.103248
7-ELEVEn(碧桂园汇德国际店),7-Eleven,越秀区,豪贤路102号碧桂园汇德国际F1层,113.274564,23.130355
7-ELEVEn(广州威铂公寓店),7-Eleven,天河区,珠江新城金穗路5号佛奥广场西门,113.317988,23.124492
7-ELEVEn(沙园店),7-Eleven,海珠区,榕景路42号1层,113.256866,23.085687
7-ELEVEn(健康港星河COCO Park店),7-Eleven,荔湾区,东沙大道16号健康港星河COCO ParkF1层,113.256853,23.059348
7-ELEVEn(汉银广场店),7-Eleven,天河区,员村街道金硕一路11号汉银广场1F东面,113.376825,23.116875
7-ELEVEn(保利中盈大厦时光汇店),7-Eleven,天河区,黄埔大道保利时光里二期1层,113.319954,23.127105
7-ELEVEn(新天河宾馆店),7-Eleven,天河区,天河路辅路与悦新街交叉口西南60米,113.31985,23.133494
7-ELEVEn(万科云店),7-Eleven,天河区,华观路1933万科云F1层,113.401912,23.168271
7-ELEVEn(JUStimes星座广场店),7-Eleven,天河区,中山大道中282号JUStimes星座广场F1层,113.403937,23.121253
7-ELEVEn(广州大学城·中关村青创汇店),7-Eleven,番禺区,大学城外环西路362号,113.374125,23.052725
7-ELEVEn(盛景家园店),7-Eleven,海珠区,南洲路与后滘南大街交叉口南100米,113.321243,23.060915
7-ELEVEn(荣升山水立方店),7-Eleven,白云区,广州大道北与蟹石路交叉口西南80米,113.326425,23.194025
7ELEVEn(理想花地趣味里店),7-Eleven,荔湾区,彩凤路花地大道北293号107铺,113.235266,23.084704
7-ELEVEn(广州滘口汽车站店),7-Eleven,荔湾区,芳兴路与芳村大道西交叉口西南140米,113.208543,23.115111
7-ELEVEn(大坦沙院区广州医科大学附属第一医院店),7-Eleven,荔湾区,桥中中路238号(河沙地铁站B口步行350米),113.219867,23.133243
7-ELEVEn(万科会博商业中心店),7-Eleven,番禺区,韦海路226号106、韦海路234号101,113.279848,22.986009
7-ELEVEn(金沙洲医院店),7-Eleven,白云区,金沙洲礼传东街1号1层(横沙地铁站C口步行360米),113.205974,23.161013
7-ELEVEn(广州兆联智业968创意园店),7-Eleven,天河区,广汕二路96-1号(柯木塱地铁站B口步行480米),113.400362,23.192374
7-ELEVEn(美馨小区店),7-Eleven,白云区,美馨小区,113.283987,23.233372
7-ELEVEn(勤天大厦店),7-Eleven,天河区,中山大道西238号勤天大厦F1层,113.373976,23.127629
7-ELEVEn(侨联大街店),7-Eleven,番禺区,大北路168号编号之一,113.366522,22.943993
7-ELEVEn(东景广场店),7-Eleven,天河区,中山大道182号东景花园首层A栋101商铺,113.398133,23.12429
7-ELEVEn(天河时代E-PARK店),7-Eleven,天河区,高唐路177号天河时代E-PARKF1层,113.402886,23.164355
7-ELEVEn(番禺星河湾店),7-Eleven,番禺区,迎宾路星河湾商业街33-34号,113.330676,23.026402
7-ELEVEn(益云科创中心店),7-Eleven,白云区,白云区广州市大源街锦石三路33号之十四104房,113.334998,23.280461
7-ELEVEn(路福联合广场店),7-Eleven,番禺区,汉溪大道西233号路福联合广场F1层,113.275244,22.987535
7-ELEVEn(广州南站店),7-Eleven,番禺区,钟村镇石壁街道南站北路广州南站B1层,113.27007,22.989339
7-ELEVEn(远洋天骄1190店),7-Eleven,天河区,远洋天骄广场4号楼116-117号单元,113.336401,23.174051
7-ELEVEn(颐景华苑店),7-Eleven,海珠区,盈丰路29颐景华苑1层A108,113.297263,23.069357
7-ELEVEn,7-Eleven,番禺区,华腾路与华创大街交叉口南280米,113.426708,22.992539
7-ELEVEn(丽江南店),7-Eleven,番禺区,丽江花园5号,113.302408,23.032963
7-ELEVEn(元寓社区店),7-Eleven,天河区,迎龙路27号,113.364498,23.195804
7-ELEVEn(颐和山庄店),7-Eleven,白云区,同泰路1号颐顺街23号,113.314063,23.217165
7-Eleven小食堂(新世界云里店),7-Eleven,白云区,百顺南路17号103房自编L1-11号,113.294389,23.235416
7-ELEVEn(东圃广场店),7-Eleven,天河区,东圃镇黄村西路38号1层,113.405639,23.12331
7-ELEVEn(天财大厦店),7-Eleven,天河区,临江大道801号天财大厦F1层,113.387653,23.110816
7-ELEVEn(凯云·新世界店),7-Eleven,白云区,集安街14号之108铺,113.299326,23.228303
7-Eleven小食堂(杏坛店),7-Eleven,海珠区,宝岗大道路杏坛大街39号,113.266911,23.096701
7-ELEVEn(健力大厦店),7-Eleven,番禺区,市桥街富华中路39号,113.366153,22.947194
7-ELEVEn(保利世界贸易中心店)(暂停营业),7-Eleven,海珠区,新港东路818号(海珠琶洲地铁站C口6119),113.366162,23.098178
7-Eleven小食堂(马务广场店),7-Eleven,白云区,黄石西路马务大街1号马务广场首层1065,113.257696,23.204973
7-ELEVEn(美林M·LIVE天地店),7-Eleven,天河区,黄埔大道东657号美林西座1F013铺,113.413437,23.106617
7-ELEVEn(广州生物岛国际公寓店),7-Eleven,海珠区,官洲街道螺旋三路8号,113.374203,23.061437
7-Eleven小食堂(李锦记大厦店),7-Eleven,番禺区,汉溪大道西路/街(巷、里)218号李锦记大厦1号101单元,113.274725,22.985225
7-ELEVEn(文化公园棋院1368店),7-Eleven,荔湾区,西堤二马37号(文化公园D出口楚庭一星元),113.249167,23.110141
7-ELEVEn(广地花园店),7-Eleven,番禺区,广地花园观灏,113.337705,23.020414
7-ELEVEn(红星美凯龙广东全球家居1号店店),7-Eleven,海珠区,新港东路285号,113.349175,23.100375
7-ELEVEn(广州媒体港1274店),7-Eleven,海珠区,滨江东路与艺苑路交叉口西南140米,113.321392,23.106334
7-ELEVEn(骏景花园店),7-Eleven,天河区,天河区骏景路93号(天懿理发旁),113.384579,23.122339
7-ELEVEn(东湖洲花园店),7-Eleven,番禺区,傍雁路821号,113.416172,22.927553
7-ELEVEn(建华汇1427店),7-Eleven,番禺区,大石街建华路44号102铺,113.31545,23.024257
7-ELEVEn(西城同德鞋业基地店),7-Eleven,白云区,环河路与富林路交叉口北220米,113.231895,23.152869
7-ELEVEn(骏景南苑店),7-Eleven,天河区,中山大道南骏景花园南苑骏霖轩A7街G座号首层06号商铺,113.385817,23.12133
7-Eleven小食堂(天兴大厦店),7-Eleven,越秀区,中山一路21号天兴大厦1层,113.311609,23.128935
7-ELEVEn(新达城广场1383店),7-Eleven,越秀区,广州大道中新达城广场,113.314325,23.140175
7-Eleven小食堂(上渡店),7-Eleven,海珠区,上渡路123号C101,113.308425,23.099933
7-ELEVEn(兴泰路店),7-Eleven,番禺区,石碁兴镇泰东路傍江西村段36、38号,113.40739,22.932401
7-ELEVEn(兴南汇),7-Eleven,番禺区,南村镇员岗中路 2 号 121 商铺(员岗地铁站G口旁),113.364553,23.015997
7-ELEVEn(智慧城广百广场店),7-Eleven,天河区,华观路1932号智慧城广百广场L1层134铺,113.40479,23.16628
7-ELEVEn(奥体中心优托邦购物中心店),7-Eleven,天河区,奥体南路12号广州奥体优托邦F1层,113.415375,23.129575
7-ELEVEn(顺威·INPARK文创园店),7-Eleven,番禺区,大石街南大公路160号6栋107铺,113.332679,23.010385
7-ELEVEn(南国奥园店),7-Eleven,番禺区,钟村镇南国奥林匹克花园大厦3A号,113.322577,22.988844
7-ELEVEn(广州碧桂园-1441店),7-Eleven,番禺区,浦华路635号(南浦地铁站D口步行420米),113.290275,23.030225
7-ELEVEn,7-Eleven,白云区,鹤龙六路与人和村富和一街交叉口西北60米,113.295428,23.336089
7-ELEVEn(天虹酒店店),7-Eleven,白云区,人和镇鹤龙六路187号华通广场A区002号部分场地,113.295525,23.335225
7-ELEVEn(天健上城阳光花园店),7-Eleven,天河区,车陂街道天建上城1栋首层12号铺(E301),113.39452,23.139634
7-ELEVEn(东平时代都荟广场店),7-Eleven,白云区,东平中路与均禾大道交叉口东北80米,113.309065,23.247584
7-ELEVEn(星河湾半岛店),7-Eleven,番禺区,连江街与凤江路交叉口东320米,113.350806,23.031487
7-ELEVEn(云山壹品店),7-Eleven,白云区,金信路125号云山锦绣家园,113.272842,23.176404
7-Eleven小食堂(天文苑店),7-Eleven,天河区,体育西路109号高盛大厦1层,113.320493,23.135448
7-ELEVEn(广州国际生物岛山地公园店),7-Eleven,海珠区,官洲街道寰宇二路6号产业园四期配套A栋307室,113.376075,23.066125
7-ELEVEn(逸彩新世界1503店),7-Eleven,荔湾区,华彩街与芳兴路交叉口西20米,113.207525,23.110875
7-ELEVEn(方圆滨江大厦店),7-Eleven,海珠区,蕙兰路丰盈居首层,113.313875,23.102775
7-ELEVEn(大沙地1510店),7-Eleven,黄埔区,大沙地西178号(大沙地地铁站A口步行70米),113.446255,23.103193
7-Eleven小食堂(淘金家园2店),7-Eleven,越秀区,淘金东路71号1层,113.294675,23.142775
7-ELEVEn(万科会博商业中心店),7-Eleven,番禺区,万科会博商业中心,113.279764,22.984843
7-ELEVEn(科学城总部经济1337店),7-Eleven,黄埔区,开发区科学大道247号广州科学城总部经济区1层101号,113.458748,23.172771
7-ELEVEn(大冶有色大厦店),7-Eleven,荔湾区,黄沙大道144号大冶有色大厦F1层,113.23119,23.118034
7-ELEVEn(布查特官邸店),7-Eleven,番禺区,南村镇迎宾路段锦绣路138号布查特官邸二期,113.341075,22.990325
7-ELEVEn(天安3店),7-Eleven,番禺区,番禺大道北555号天安节能科技园24号楼首层,113.374771,22.978189
7-ELEVEn(广州市白云山风景名胜区店),7-Eleven,白云区,云天南路与云山南路交叉口西南60米,113.300191,23.172202
7-ELEVEn(宝泰来中心店),7-Eleven,花都区,镜湖大道13号之三101、102、103铺,113.252086,23.364869
7-ELEVEN(花都医院店),7-Eleven,花都区,新华路77号之5号,113.211765,23.374447
7-ELEVEn(怡祥·盛达创新园店)(暂停营业),7-Eleven,天河区,荷光一横路自编6,113.374793,23.131108
7-Eleven小食堂(泽德花园店),7-Eleven,白云区,同德围泽德南四街2-6号首层A12号,113.240197,23.175898
7-Eleven小食堂(新潮店),7-Eleven,海珠区,新港中路356号之1丽影广场A区1层7座楼下,113.322456,23.095566
7-ELEVEn(亚运城喜街店),7-Eleven,番禺区,兴亚三路43号,113.485391,22.944901
7-ELEVEn(长兴·智汇商务中心店),7-Eleven,天河区,长福路203号,113.346086,23.165762
7-ELEVEn(汇盈广场店),7-Eleven,番禺区,桥街道光明北路269号汇盈广场,113.360306,22.950567
7-ELEVEn(迎龙海悦城店),7-Eleven,天河区,迎龙路3号迎龙海悦城F1层,113.365869,23.192295
7-Eleven小食堂(岭南世界店),7-Eleven,白云区,白云大道岭南新世界C区91号,113.2959,23.231497
7-ELEVEn(广工大宿舍1607店),7-Eleven,越秀区,黄花岗街道犀牛北街463号广工大宿舍,113.299875,23.135925
7-ELEVEn(巨大创意产业园店),7-Eleven,番禺区,石北工业路与宝江路交叉口西北120米,113.285522,23.013415
7-ELEVEn(佳纷天地店),7-Eleven,黄埔区,盛凯大街1号佳纷天地F1层,113.54928,23.104291
7-ELEVEn(清河东路店),7-Eleven,番禺区,清河东路与德胜路交叉口西南20米,113.374007,22.935145
7-ELEVEn(佰利山优活商业街店),7-Eleven,番禺区,南村镇兴南大道滟澜街1号之1号商铺,113.387593,23.018568
7-ELEVEn(雅居乐商业街店),7-Eleven,番禺区,南村镇员岗村广州雅居乐花园商业街1区102号,113.360725,23.010902
7-ELEVEn(奥园国际中心·购物中心店),7-Eleven,番禺区,南村镇汇智三路65号7栋170铺,113.346629,23.007831
7-ELEVEn(奥园城市天地味央巷店),7-Eleven,番禺区,汉溪路163号奥园城市天地Hi5区5栋1层4-5号,113.333599,22.992709
7-ELEVEn(白云山风景名胜区荡胸亭店),7-Eleven,白云区,云山中路(摩星岭东北),113.304294,23.185152
7-ELEVEn(雪域澜庭店),7-Eleven,花都区,叶榕街8号雪域澜庭A1区,113.228489,23.432811
7-ELEVEn(小城之春店),7-Eleven,花都区,新华街迎宾大道20号之2、20-22号,113.208263,23.400309
7-ELEVEn(同乐广场店),7-Eleven,白云区,广新路103号,113.446144,23.378804
7-Eleven小食堂(龙骏广场店),7-Eleven,白云区,龙骏大厦西北门旁,113.226978,23.17732
7-ELEVEn(聚味珠江道美食广场店),7-Eleven,天河区,猎德大道20号聚味珠江道美食广场(猎德大道辅路店),113.333971,23.121087
7-ELEVEn(友利园店),7-Eleven,番禺区,市桥街光明南路199号4号楼101单元,113.361375,22.939834
7-Eleven小食堂(江高步行街店),7-Eleven,白云区,夏花三路109号,113.233014,23.274762
7-ELEVEn(招商城市主场店),7-Eleven,番禺区,招商城市主场,113.351775,23.011375
7-ELEVEn(金湖花园店),7-Eleven,白云区,沙太北路938号靠近金湖花园,113.345143,23.205537
7-ELEVEn(厦滘地铁站店B口),7-Eleven,番禺区,厦滘南路12号(厦滘地铁站B口步行160米),113.320801,23.038055
7-ELEVEn(鸿德国际酒店店),7-Eleven,天河区,东莞庄路2号的鸿德国际酒店首层,113.334563,23.149701
7-ELEVEn(珠江花城香颂店),7-Eleven,天河区,珠江花城香颂,113.440635,23.130823
7-ELEVEn(昂宝大厦店),7-Eleven,黄埔区,莲花砚路1号昂宝大厦F1层,113.435613,23.175455
7-ELEVEn(绿地空港店),7-Eleven,花都区,汇航一街与清塘路交叉口东140米,113.262607,23.36975
7-ELEVEn(基盛万科店),7-Eleven,番禺区,基盛万科中央公园A区写字楼下,113.385825,22.932043
7-ELEVEn(华侨城店),7-Eleven,番禺区,市桥镇西丽路228号华侨城,113.354418,22.932965
7-ELEVEn(德兴路店),7-Eleven,番禺区,市桥镇德兴南路德福楼245号,113.377489,22.9331
7-ELEVEn(乐羊羊路店),7-Eleven,番禺区,亚运城乐羊羊路55号亚运城天峯2区,113.492625,22.948125
7-ELEVEn(百信西区B塔1529店),7-Eleven,白云区,棠乐路与棠涌谢家巷交叉口北60米,113.255815,23.195366
7-ELEVEn(绿地空港店),7-Eleven,花都区,绿地空港,113.260735,23.366987
7-Eleven小食堂(邮电学院店),7-Eleven,天河区,中山大道西193号附近,113.364813,23.134398
7-Eleven小食堂(意库公寓店),7-Eleven,番禺区,东环街东艺路139号26栋101-102号,113.343869,22.979493
7-Eleven小食堂(港湾国际店),7-Eleven,黄埔区,港湾路68号港湾国际F1层,113.450016,23.095917
7-ELEVEn(科尔海悦酒店店),7-Eleven,番禺区,清河东路288号科尔海悦酒店1层1号,113.383084,22.934503
7-ELEVEn(美心·翡翠明庭店),7-Eleven,番禺区,石基镇清河东路石岗东村段78-80号,113.400905,22.935791
7-ELEVEn(圹口北路店),7-Eleven,花都区,凤凰北路59号福达广场,113.233235,23.423698
7-ELEVEn(富城邻里时光店),7-Eleven,番禺区,富城邻里时光南门西北60米,113.361377,22.952331
7-ELEVEn(宏大商务公寓店),7-Eleven,黄埔区,源祥路与瑞发路交叉口北300米,113.497525,23.158425
7-ELEVEn(天安科技创新大厦店),7-Eleven,番禺区,迎宾路696号天安科技创新大厦附近,113.366781,22.97882
7-ELEVEn(沙湾古镇店),7-Eleven,番禺区,大巷涌路87号,113.337637,22.901309
7-ELEVEn(喜盈·嘉立思酒店公寓店),7-Eleven,番禺区,南城路237号,113.361224,22.922039
7-Eleven小食堂(云璟汇店)(暂停营业),7-Eleven,白云区,云城东路559宏宇云璟汇F1层,113.270561,23.179048
7-ELEVEn(凤和向前南街店),7-Eleven,白云区,人和镇凤和冯安街十四巷2号之一,113.293713,23.354353
7-ELEVEn(华景新城店),7-Eleven,番禺区,桥南街南华路62号华景新城,113.366885,22.92793
7-ELEVEn(新力盈丰中心店),7-Eleven,番禺区,南村镇鸿创二街2号A103号,113.377274,22.979294
7-ELEVEn(海伦堡创意园店),7-Eleven,番禺区,禺山西路南50米,113.341722,22.937984
7-ELEVEn(纳金科技园-1292店),7-Eleven,黄埔区,云埔街道大老热纳金城B1座,113.505252,23.153155
7-ELEVEn(尚上名筑店),7-Eleven,番禺区,石楼镇石清公路361号尚上名筑A区,113.488334,22.955058
7-ELEVEn(望亭店),7-Eleven,花都区,望亭路与中陵大街交叉口西160米,113.185791,23.369416
7-ELEVEn(东怡新区店),7-Eleven,番禺区,大龙街道东怡区三街东怡新区,113.391498,22.932377
7-ELEVEn(东汇城店),7-Eleven,增城区,荔城街府佑路98号东汇城F1层,113.819811,23.284569
7-ELEVEn(番禺中心医院店),7-Eleven,番禺区,桥南街道桥南街福愉东路8号番禺中心医院住院部2号楼711便利店,113.374788,22.909709
7-ELEVEn(云峰购物广场店),7-Eleven,花都区,新华街镜湖大道2号云峰花园之三4栋-5栋首层商铺自编K6号铺,113.247386,23.378802
7-ELEVEn(科学城总部经济1337店),7-Eleven,黄埔区,映日路与科学大道交叉口西北260米,113.455928,23.172344
7-ELEVEn(新福港·鼎峰店),7-Eleven,黄埔区,香雪大道西311号新福港鼎峰花园A14栋,113.486689,23.178571
7-ELEVEn(繁华路1643店),7-Eleven,番禺区,繁华路61号,113.361725,22.941875
7-ELEVEn(欣荣广场店),7-Eleven,从化区,从城大道111号欣荣广场A栋B1层,113.588743,23.533353
7-ELEVEn(城市主场1592店),7-Eleven,番禺区,招商城市主场,113.351825,23.011375
7-ELEVEn(荷景花园店),7-Eleven,番禺区,沙湾镇沙湾大道17号荷景花园六区,113.344052,22.906476
7-ELEVEn(奥园广场店),7-Eleven,番禺区,福德路317号奥园广场乐活街1层,113.359986,22.924251
7-ELEVEn(东景园店),7-Eleven,番禺区,石基镇东豪路19号,113.391882,22.934518
7-ELEVEn(广州市番禺区中医院店),7-Eleven,番禺区,桥东路与市桥工业路交叉口东北60米,113.369077,22.937671
7-ELEVEn(荷塘月色清风居店),7-Eleven,白云区,方园西北门西南140米,113.271931,23.199118
7-ELEVEn(双山大道店),7-Eleven,南沙区,广丰路1号丰庭商务中心1-2层的1-16号、1-17号商铺,113.538328,22.792001
7-ELEVEn(骏威广场店),7-Eleven,花都区,公益路1-121(商业大厦1层101),113.216893,23.392395
7-ELEVEn(盛业广场),7-Eleven,番禺区,大龙街金龙路1号盛业广场105铺,113.431825,22.952975
7-ELEVEn(源海·金沙御苑店),7-Eleven,番禺区,沙湾镇祈福水城(中良路)中良路24号,113.35428,22.910599
7-Eleven小食堂(琶洲保利中悦店),7-Eleven,海珠区,暄悦东街19保利中悦广场F1层,113.383308,23.104069
7-ELEVEn(路劲·隽悦豪庭店),7-Eleven,花都区,兰花路路劲·隽悦豪庭,113.194824,23.418264
7-ELEVEN(南航空港酒店1605店),7-Eleven,花都区,空港大道9号,113.31353,23.425316
7-ELEVEn,7-Eleven,从化区,灌村路与环市东路交叉口南280米,113.618075,23.557275
7-ELEVEn(合景·上城湾畔店),7-Eleven,从化区,江湾路73号,113.588403,23.529413
7-Eleven小食堂(创业路店),7-Eleven,黄埔区,开发区创业路32号(黄埔新港地铁站A口步行460米),113.52618,23.055932
7-ELEVEn(祈福·辉煌台店),7-Eleven,花都区,新华街云山大道2号之二祈福辉煌台3、5栋29号(3、5栋自编129号),113.193585,23.376048
7-ELEVEn(天韵花园店),7-Eleven,番禺区,石楼镇兴海路93号11栋105、106,113.494762,22.946932
7-ELEVEn(中国铁建环球中心店),7-Eleven,南沙区,中国铁建环球中心6号楼门口右侧,113.521984,22.802207
7-ELEVEn(保利高尔夫店),7-Eleven,花都区,岭东路95号之2(飞鹅岭地铁站B口步行230米),113.156249,23.376693
7-ELEVEn(雅居乐·雍华廷店),7-Eleven,花都区,凤凰北路32号3号楼Y8座61号,113.234466,23.398687
7-ELEVEn(天龙苑1119店),7-Eleven,花都区,望岗路6号之十十一铺祈福天龙苑楼下,113.195235,23.370177
7-ELEVEn(晨光文具岭南新世界A区店),7-Eleven,白云区,集慧街与集俊街交叉口西北140米,113.294901,23.234527
7-ELEVEn(石碁城市广场店),7-Eleven,番禺区,石碁镇石基广场步行街石棋城市广场,113.442155,22.955444
7-ELEVEn(锦东花园A区店),7-Eleven,花都区,锦东花园A区,113.225128,23.406761
7-ELEVEn(融创茂1店1257店),7-Eleven,花都区,凤凰北路63号融创茂F1层,113.234417,23.426462
7-ELEVEn(雅乐城店),7-Eleven,花都区,永发路14雅乐城F1层,113.188714,23.421351
7-ELEVEn(羊城创意园1400店),7-Eleven,天河区,黄埔大道中309号羊城产业创意园自编3-11-1,113.382594,23.120143
7-ELEVEn(华南碧桂园翠云山店),7-Eleven,番禺区,南村镇华南碧桂园翠云山苑16座20号,113.379585,23.002599
7-ELEVEn(巨大创意产业园3期店),7-Eleven,番禺区,大石街石化工业路684号5栋109单元,113.285959,23.0171
7-ELEVEn(华南碧桂园店),7-Eleven,番禺区,南村镇里仁洞村华南碧桂园会所,113.357304,22.997985
7-Eleven小食堂(高高天地店),7-Eleven,番禺区,小谷围街道贝岗村中二横路1号1021-1022房GOGO新天地,113.391808,23.062026
7-ELEVEn(宝茶横街店),7-Eleven,花都区,新华街道茶园南路15号4楼,113.21412,23.392882
7-ELEVEn(翡翠绿洲森林半岛店),7-Eleven,增城区,[],113.560751,23.13163
7-ELEVEn(君豪大厦店),7-Eleven,花都区,宝华路君豪大厦首层109铺,113.228347,23.392567
7-ELEVEn(狮城国际1261店),7-Eleven,花都区,狮岭大道东8号之23首层,113.18761,23.444074
7-ELEVEn(锦绣香江11120),7-Eleven,番禺区,汉溪大道锦绣香江山水园11号商铺,113.338025,22.996063
7-ELEVEn(万达贸2店),7-Eleven,花都区,凤凰北路63号融创茂F1层,113.234244,23.428398
7-ELEVEn(南沙悠方天地店),7-Eleven,南沙区,黄阁镇翠瑜街3号101房自编号28号111铺,113.519818,22.798822
7-Eleven小食堂(天安1号楼店),7-Eleven,番禺区,番禺大道北555号天安总部中心1号楼1-105,113.370603,22.979487
7-ELEVEn(欣荣广场店),7-Eleven,从化区,从城大道111号欣荣广场F1层,113.59165,23.531136
7-ELEVEn(欧派家居集团135基地店),7-Eleven,白云区,人和镇居家大道欧派家居集团135基地内,113.247574,23.307873
7-ELEVEn(富力·金港城店),7-Eleven,花都区,金港西四街1-6号101商铺,113.360544,23.456942
7-Eleven小食堂(钟福广场店),7-Eleven,番禺区,钟韵路1号钟福广场F1,113.322568,22.969066
7-ELEVEn(广医四院店),7-Eleven,增城区,增江街光明东路8号临街自编号之十六号商铺,113.841828,23.283459
7-ELEVEn(金业花园店),7-Eleven,番禺区,沙湾镇市良路金业花园综合楼1层1号,113.36745,22.917608
7-ELEVEn(明珠开发大厦店),7-Eleven,南沙区,横沥镇明珠一街南沙金控大厦附近,113.513308,22.770381
7-ELEVEn(喜龙商务大厦店),7-Eleven,花都区,狮岭大道西6号喜龙商务大厦1层,113.167456,23.456875
7-ELEVEn(成卓世纪中心店)(暂停营业),7-Eleven,南沙区,海滨路成卓世纪中心109号,113.534086,22.800296
7-ELEVEn(增城万达店),7-Eleven,增城区,增城大道69号广州增城万达广场3栋127,113.816416,23.275045
7-ELEVEn(御华园店),7-Eleven,花都区,狮岭镇狮岭大道东1号御华园,113.190275,23.445868
7-ELEVEn(阳光城·熙然府店),7-Eleven,南沙区,南沙街道南沙街阳光城熙然府二街2号103房,113.543212,22.803052
7-ELEVEn(建滔广场店),7-Eleven,南沙区,凯翔路1号建滔广场F1层,113.526747,22.796748
7-ELEVEn(麒麟广场店),7-Eleven,南沙区,黄梅路麒麟广场,113.506861,22.819645
7-ELEVEn(广州城市理工学院店),7-Eleven,花都区,学府一街与学府路交叉口西80米,113.173736,23.428643
7-ELEVEn(8号仓流溪河奥莱小镇店),7-Eleven,从化区,广从南路2231号广州8号仓原8号仓流溪河奥莱小镇B1层,113.519225,23.477675
7-ELEVEn(广州医科大学附属第三医院黄埔院区店),7-Eleven,黄埔区,广州医科大学附属第三医院黄埔院区门诊楼东侧,113.491895,23.206669
7-ELEVEn(亿达方圆荟1659店),7-Eleven,白云区,广花三路399号亿达方圆荟F1层,113.238675,23.297925
7-ELEVEn(华创产业园一期1583店),7-Eleven,番禺区,环创大街与朱庄街交叉口东北60米,113.421022,22.989577
7-ELEVEn(松下万宝电器厂-1389),7-Eleven,番禺区,万宝北街与万宝中二街交叉口东100米,113.304628,22.9935
7-ELEVEn(华南新材料创新园店),7-Eleven,黄埔区,科丰路31号华南新材料创新园G2栋F1层,113.459674,23.149851
7-Eleven小食堂(广州商学院1店),7-Eleven,黄埔区,腾飞园中新里附近,113.568428,23.303883
7-ELEVEn(香江金融商务中心店),7-Eleven,南沙区,金隆路37号香江金融商务中心F1层,113.54609,22.794545
7-ELEVEn(雅居乐·滨江花园店),7-Eleven,从化区,雅居乐滨江花园尚景路60号,113.592572,23.53323
7-ELEVEn(凤锦苑1012店),7-Eleven,增城区,新塘镇凤凰城凤锦苑1街3号,113.581823,23.14931
7-ELEVEn(凤凰荟商业中心店),7-Eleven,增城区,新塘镇广园东碧桂园凤凰城广场大街1层030号,113.575675,23.127125
7-ELEVEn(高晟广场店),7-Eleven,花都区,迎宾大道163号高晟广场F1层,113.245822,23.388967
7-ELEVEn(新塘碧桂园1175店),7-Eleven,增城区,新塘镇广园东碧桂园凤凰城东门商业街233号商铺,113.589189,23.136967
7-ELEVEn(广州白云国际机场T2航站楼),7-Eleven,花都区,广州白云国际机场T2航站楼3F层,113.310634,23.399366
7-Eleven小食堂(新塘新世界店),7-Eleven,增城区,新塘镇新世界花园万象苑商业街113号,113.571908,23.109689
7-ELEVEn(富力千禧商务中心店),7-Eleven,海珠区,新港西路17号(晓港地铁站D口步行380米),113.284056,23.094943
7-ELEVEn(文冲店),7-Eleven,黄埔区,石化路163号(文冲地铁站D口步行110米),113.46927,23.105124
7-Eleven小食堂(珠江荟店),7-Eleven,海珠区,聚德北路148-178号,113.329875,23.085575
7-ELEVEn(美林湖畔店),7-Eleven,天河区,桃园南二街135号(首层)之二,113.41452,23.108716
7-ELEVEn(赫基大厦店),7-Eleven,海珠区,新港东路277号赫基大厦F2层,113.347485,23.099866
7-ELEVEn(南源路店),7-Eleven,番禺区,南源路与亚运南路交叉口南100米,113.484651,22.939949
7-ELEVEn(云来斯堡写字楼店),7-Eleven,天河区,黄埔大道西126号第1层103号单元,113.342064,23.12588
7-Eleven小食堂(暨南大学店),7-Eleven,天河区,黄埔大道西601号暨南大学西门建行宿舍这栋楼,113.345397,23.136073
喜士多(天河路店),喜士多,天河区,天河路494号壬丰大厦F1层,113.335147,23.132843
喜市多(鑫耀大厦店),喜士多,白云区,解放北路1384号(梓元岗地铁站B口步行90米),113.264005,23.1544
喜市多(广工大店),喜士多,越秀区,广东教学仪器厂南门旁(区庄地铁站D口步行130米),113.298287,23.134718
喜士多(市场北路店),喜士多,荔湾区,花博大道101号广州百艺城芳村花鸟虫鱼新世界水族馆,113.206427,23.063872
喜士多便利店(上涌东约新十六巷店),喜士多,海珠区,上冲东约新十六巷1号(大塘地铁站A口步行410米),113.321792,23.082113
喜士多便利店(龙口小区店),喜士多,天河区,龙口西路76号(岗顶地铁站A口步行440米),113.336968,23.135751
喜市多(中广大厦店),喜士多,越秀区,人民北路612号中广大厦F1层,113.254447,23.133668
喜士多便利店(名门大厦豪名阁店),喜士多,天河区,花城大道2号(五羊邨地铁站B口步行240米),113.315943,23.119473
喜士多便利店(中侨大厦店),喜士多,越秀区,先烈中路76号01楼01房,113.294421,23.135471
喜士多便利店(西红柿店),喜士多,天河区,天河路586号总统大酒店1层A029号,113.33869,23.134051
喜士多便利店(金达苑店),喜士多,天河区,天润路47号(龙口西地铁站A口步行350米),113.335557,23.143527
喜士多(海珠昌岗碧乐时光店),喜士多,海珠区,江南大道中与昌岗中路交叉口西北120米,113.276153,23.091558
广喜士多(青阳大道店),喜士多,番禺区,德星工业园东北门旁,113.346073,23.015659
喜市多(东环店),喜士多,天河区,天河路天河直街1华苑大厦F1层,113.318039,23.134894
喜市多(体育东店),喜士多,天河区,丽珀SOHO东1门旁(体育中心地铁站B口步行480米),113.329386,23.139203
喜市多(肇源商业区店),喜士多,番禺区,南桂路7号肇源商业区F1层,113.293684,23.032888
喜市多(海联店),喜士多,海珠区,海联路181号(滨江东路地铁站A口步行390米),113.288719,23.101361
喜士多(迎宾路店),喜士多,番禺区,迎宾路与上漖大街交叉口东南300米,113.317564,23.033482
喜士多便利店(越秀新都会大厦中座店),喜士多,越秀区,中山六路232越秀新都会大厦中座F1层,113.254916,23.125836
喜市多(光明店),喜士多,越秀区,光明路28号广东省药品交易中心一层,113.290441,23.13571
喜市多(东宝门市店),喜士多,越秀区,东风东路765东宝大厦F1层,113.311152,23.131821
喜市多(新天悦店),喜士多,海珠区,琶洲新村11栋(万胜围地铁站D口步行420米),113.382706,23.098473
喜士多便利店(寰城海航广场店),喜士多,天河区,寰城海航广场南门旁,113.328876,23.14199
喜士多便利店(富力公园28店),喜士多,天河区,马场路与金穗路交叉口东40米,113.34376,23.122569
喜市多(全季店),喜士多,天河区,林和中路180号(广州东站地铁站F口旁),113.326008,23.148963
喜市多(金海店),喜士多,天河区,天河北路614号(龙口西地铁站B口步行110米),113.338357,23.141119
喜市多(盘福门市店),喜士多,越秀区,盘福路盘福直街5号首层,113.258227,23.130696
喜市多(珠江新城喜善利百货店),喜士多,天河区,平云路177号马赛国际公寓首层,113.350933,23.124859
喜士多,喜士多,黄埔区,护林路与敬业路交叉口东南340米,113.479075,23.108525
喜市多(广安店),喜士多,越秀区,建设街道环市东路328号大堂西侧场地,113.280474,23.138255
喜士多便利店,喜士多,花都区,富源一路28号,113.249457,23.343675
喜市多(天龙店),喜士多,天河区,龙口西路309号A铺(龙口西地铁站A口步行80米),113.335805,23.140919
喜市多(叠彩店),喜士多,海珠区,叠景路211号,113.312193,23.085715
喜市多,喜士多,天河区,天河路683号1楼111单元,113.341787,23.136046
喜市多(新滘中路店),喜士多,海珠区,岭南创意园新窖中路583E栋,113.339251,23.080816
喜市多(人民中门市店),喜士多,荔湾区,长寿路412-414号,113.25276,23.118119
喜士多(中华大道店),喜士多,番禺区,福北路2号沙湾古镇,113.342436,22.903943
喜市多(天府路店),喜士多,天河区,天府路11-1号方圆小院,113.361312,23.126755
喜市多(皮革城店),喜士多,越秀区,三元里大道215、217号民生商业大厦101E房,113.257258,23.1573
喜市多(展贸店),喜士多,越秀区,流花路115-117号广州流花展贸中心,113.259455,23.141174
喜市多(富诚门市店),喜士多,白云区,金钟横路188号101房富诚大厦,113.268826,23.169387
喜市多(城建大厦店),喜士多,天河区,体育西路189号城建大厦西门首层1001号,113.320492,23.138982
喜市多(海瑞店),喜士多,白云区,尖彭路403号天瑞广场F1层,113.294457,23.225094
喜士多便利店(罗浮宫家居艺术中心B座店),喜士多,天河区,黄埔大道中666号罗浮宫家居艺术中心B座1F层B1-821,113.383193,23.116693
喜市多便利店(广美创意中心店),喜士多,海珠区,昌岗东路257号碧乐时光海珠昌岗店F1层,113.277593,23.091673
喜市多便利店(江燕门市),喜士多,海珠区,江燕路南珠广场韵泉阁第1层,113.278843,23.081047
喜市多便利店(东兴大厦店),喜士多,越秀区,环市东路492号东兴大厦F1层,113.307407,23.134317
喜市多(富盛门市),喜士多,天河区,马场路16号富力盈盛广场B座F1层,113.344116,23.117954
喜市多(洋湾岛店),喜士多,海珠区,广州大道南1601号之二、之三、之四自编首层1056-2,113.3149,23.072133
喜市多(天润店),喜士多,天河区,龙口西路357(龙口西地铁站A口步行320米),113.336272,23.14391
喜市多(机场路店),喜士多,白云区,机场路888号广物汽贸西区8号楼303室,113.261248,23.187153
喜市多(天河东店),喜士多,天河区,天河东路165号,113.332963,23.138678
喜市多(二分店),喜士多,荔湾区,南岸路45号圣地新天地广场F1层,113.229117,23.133168
喜士多便利店(工美港店),喜士多,海珠区,新港东路2519号东北60米,113.402716,23.09331
喜市多(高志大厦优托邦驿站店),喜士多,天河区,黄埔大道西120号优托邦驿站高志大厦店F1层,113.340215,23.125637
喜市多便利店(龙口西店),喜士多,天河区,龙口西路100号中明大厦F1层,113.336449,23.13733
喜士多便利店,喜士多,黄埔区,护林路与敬业路交叉口东320米,113.479762,23.110669
喜市多(萝岗奥园广场店),喜士多,黄埔区,开创大道1934号萝岗奥园广场F1层,113.498486,23.173717
喜市多(天河新天地店),喜士多,天河区,天源路5号一层L111L112号,113.344259,23.172363
喜市多(华景里店),喜士多,天河区,景邮路12号104铺之1号,113.363778,23.139409
喜市多(天逸店),喜士多,天河区,龙口中路154天逸大厦F1层,113.339471,23.13955
喜市多便利店(友谊门市),喜士多,天河区,天河南街道体育东小区(天河南二路)康平大厦,113.332786,23.131134
喜市多(海洋地质大厦店),喜士多,越秀区,环市东路477号(动物园地铁站B口步行120米),113.30615,23.134864
喜市多便利店(富力盈力大厦北塔店),喜士多,天河区,华强路3富力盈力大厦北塔F1层,113.31734,23.12702
喜市多便利店(华利店),喜士多,天河区,华利路26号(近五羊新城),113.316679,23.11741
喜士多便利店(青年电梯公寓店),喜士多,天河区,吉山东新街与吉山坑尾路交叉口西40米,113.435175,23.130862
喜市多(陶庄店),喜士多,天河区,沙东街道陶庄路4号09房,113.321905,23.16192
喜市多(海安店),喜士多,天河区,海安路11号01铺,113.338383,23.124644
喜市多(南方通信店),喜士多,天河区,华景路1号南方通信大厦F1层,113.357203,23.134923
喜市多(东圃美华百货店),喜士多,天河区,东圃大马路汇友苑7号11铺(菜鸟驿站),113.402039,23.117935
喜市多(纺织城二店),喜士多,海珠区,珠江国际纺织城南门东北90米,113.302526,23.083103
喜市多(广州萝岗万达广场店),喜士多,黄埔区,科丰路89号广州萝岗万达广场1F层E171,113.466107,23.16972
喜市多便利店(长盛店),喜士多,白云区,潭村运达商业广场1期(石潭地铁站C口步行430米),113.240005,23.191476
喜市多(江岭南店),喜士多,越秀区,东华东路光东前街26号1层,113.294501,23.119518
喜市多便利店(黄边时光汇店),喜士多,白云区,鹤龙街黄边北路152号B1083房,113.28631,23.221342
喜市多便利店(嘉逸豪庭酒店店),喜士多,天河区,体育东路林和街148号,113.326961,23.145674
喜市多便利店,喜士多,天河区,粤垦路169-171号1层(近农工商学院),113.332529,23.155083
喜市多(鸿宏广场店),喜士多,海珠区,工业大道南地铁站C口步行250米,113.290046,23.068555
喜士多便利店(广州国际生物岛山地公园店),喜士多,海珠区,寰宇一路与星际三路交叉口东南60米,113.379475,23.069925
喜市多(侨鑫·汇景新城龙熹山店),喜士多,天河区,汇景北路168-182号(双号)侨鑫·汇景新城龙熹山,113.374092,23.1474
喜市多(天河东二),喜士多,天河区,天河东路48-3号,113.334435,23.129855
喜市多便利店(华逸店),喜士多,天河区,棠下街道华景北路46号,113.362081,23.14117
喜市多(六元素体验天地店),喜士多,海珠区,新港东路1088号中洲交易中心六元素体验天地1层02-C号,113.372562,23.096469
喜市多(高普店),喜士多,天河区,高普路1029号1楼西侧01铺,113.411937,23.172329
长洲路爱喜士多店,喜士多,黄埔区,长江路28号长洲岛(东北角),113.422574,23.078704
喜市多(奥特斯),喜士多,番禺区,番禺大道北383号海印又一城奥特莱斯广场A座1F层,113.349242,22.99826
喜市多(高讯大厦店),喜士多,越秀区,环市东路416号1层(区庄地铁站E口步行330米),113.293812,23.13426
喜市多(远洋门市店),喜士多,越秀区,环市东路459号(区庄地铁站E口步行480米),113.292161,23.134842
喜市多便利店(聚荟广场店),喜士多,白云区,石槎路35号聚荟广场F1层(聚龙地铁站D口步行50米),113.238404,23.181807
七喜士多店,喜士多,黄埔区,岗贝中路与骏达路交叉口西南60米,113.529092,23.139094
喜市多(汇景门市),喜士多,番禺区,汇景大道绿庭雅园54-58号,113.369908,22.921884
喜市多便利店(中海康城店),喜士多,天河区,大观南路中海康城紫罗兰街10号702房,113.403928,23.133369
喜士多便利店(南溪定溪庄西街店),喜士多,花都区,花东镇南溪村定溪庄15巷12号,113.324589,23.438355
喜市多(南粤阁店),喜士多,天河区,林和西横路63号首层A4房,113.321648,23.145964
喜市多(旺颖百货店),喜士多,越秀区,人民中路408号大晟华厦(警辉大厦)1层自编3号,113.254457,23.124194
喜市多(南方医院店),喜士多,白云区,怡新路229号恒大御府06号楼,113.32934,23.187404
喜市多(时光大厦店),喜士多,越秀区,东沙角路16号方圆越秀时光105铺,113.279451,23.116569
喜市多(猎德花园店),喜士多,天河区,猎德大道2号,113.334348,23.113752
喜市多便利店(粤传媒大厦店),喜士多,海珠区,芳园路138号首层,113.348751,23.103299
喜市多(广州科学城总部经济区1期店),喜士多,黄埔区,联和街道高新技术开发区科学城科学大道237号总部经济区a2栋首层,113.457046,23.172047
喜市多(志宁百货店),喜士多,荔湾区,芳和花园A17号铺,113.226321,23.077987
喜市多(金禧门市店),喜士多,海珠区,福场路5号富力金禧商务中心一楼,113.261024,23.105867
喜市多便利店(礼园路店),喜士多,番禺区,广州大学城智慧谷A5座首层,113.413838,23.028379
喜市多(上誉花园),喜士多,越秀区,天河路45号,113.312684,23.135131
喜市多便利店(奥特斯二店),喜士多,番禺区,海印又一城B座,113.348932,23.000087
喜士多百货,喜士多,花都区,狮岭镇西头西一新庄二巷2号,113.122675,23.457225
喜市多(侨林苑店),喜士多,天河区,侨林路59号,113.330168,23.143497
喜士多便利店(万科里享家店),喜士多,黄埔区,万科里享家蔚来南门东南110米,113.567398,23.196645
喜市多(环宇大厦店),喜士多,天河区,石牌东路249号,113.343491,23.12734
喜市多便利店(科景苑店),喜士多,黄埔区,科景苑西南门旁,113.474875,23.163125
喜市多(黄边北路店),喜士多,白云区,黄边北路160号(黄边地铁站B口步行100米),113.288116,23.221197
喜市多(新维家思店),喜士多,天河区,黄埔大道西188号维家思广场B-01号,113.326959,23.126006
熙宸园区喜士多,喜士多,番禺区,碧沙环村街与沙南路交叉口南100米,113.344275,22.947075
大欢喜士多店,喜士多,天河区,东莞庄南街与东莞庄路交叉口东60米,113.33847,23.157476
喜市多(环汇商业广场店),喜士多,海珠区,新港东路1166号106房,113.378447,23.095685
喜市多(环贸天地店),喜士多,天河区,林和街道天河北路237号环贸天地F1层,113.326096,23.142246
喜市多(黄埔大道中店),喜士多,天河区,黄埔大道中664号B馆B1-821,113.383135,23.116697
喜市多,喜士多,海珠区,盈丰路61号之1号,113.299668,23.069073
喜市多(广联大厦店),喜士多,越秀区,东风东路750号广联大厦,113.300016,23.131158
喜市多(五山路店),喜士多,天河区,五山路141号尚德大厦F1层,113.344504,23.139773
喜市多(东成花苑店),喜士多,天河区,黄埔大道中161号之八,113.358459,23.124304
喜市多(和樾府二期店),喜士多,番禺区,番禺大道北辅路与汇智三路交叉口西400米,113.339575,23.004425
喜市多(西城智汇店),喜士多,白云区,西槎路31号大院北区A2栋106室,113.235738,23.153706
喜市多(华新汇店),喜士多,番禺区,汇智二路236号华新·智汇1号楼F1层,113.352497,23.008855
喜市多(滨江东二店),喜士多,海珠区,滨江东路801号(新广场旁),113.309291,23.102538
喜市多便利店(归谷一店),喜士多,黄埔区,联和街道开泰大道26号归谷·Link F1层,113.46746,23.162464
喜市多(礼岗店),喜士多,海珠区,信明阁北门旁,113.276126,23.086721
喜市多(南物国际商贸城店),喜士多,黄埔区,护林路1199号捷普电子有限公司,113.48201,23.1098
喜市多(至泰广场店),喜士多,黄埔区,开创大道2399号至泰广场1F层B1030,113.483595,23.173879
喜市多(盛德门市店),喜士多,天河区,黄埔大道西367号中铁盛德国际1层(盛德停车场出口旁边),113.337817,23.127936
喜市多便利店(南方美谷),喜士多,黄埔区,埔北路98号,113.547227,23.133396
喜市多(兴盛路店),喜士多,天河区,兴盛路10号环球都会广场130,113.331032,23.120457
喜市多(至泰广场店),喜士多,黄埔区,开创大道2399号至泰广场1F层,113.48457,23.17437
喜市多(伟腾商务中心店),喜士多,天河区,黄埔大道中130-1号,113.354468,23.124317
欢喜士多店,喜士多,黄埔区,大沙街道加庄村头庙街21号,113.460582,23.144769
喜市多(叁悦广场店),喜士多,海珠区,暄悦东街83号地下1层B113房,113.384943,23.101289
喜市多(柏丽店),喜士多,白云区,三元里梓元岗路4号一层A01号,113.261375,23.150375
喜市多(永福路店),喜士多,越秀区,永福路2号-1(黄花岗地铁站A口步行320米),113.301619,23.143777
喜市多便利店(开元广场店),喜士多,海珠区,琶洲建设者之家东门东北90米,113.344101,23.104597
喜市多(新太科技大厦店),喜士多,天河区,建工路4号新太科技大厦F1层,113.372369,23.124295
喜市多(番禺天河城店),喜士多,番禺区,南村万惠路81号114铺,113.349511,23.003252
喜市多(天河汇商业广场店),喜士多,天河区,天河直街160号天河汇商业广场首层北3-1号,113.317097,23.139714
喜市多(富力盈泰广场店),喜士多,天河区,黄埔大道西100号富力盈泰广场首层,113.335147,23.125981
喜市多(南天广场店),喜士多,天河区,花城大道1号南天广场F1层,113.316893,23.120039
喜市多便利店(祥龙商业广场店),喜士多,天河区,天河北路177号祥龙商业广场,113.321472,23.141422
喜市多(金东环门市),喜士多,越秀区,环市东路476-2号,113.305296,23.133705
喜市多(同福门市店),喜士多,海珠区,同福中路406号商铺,113.262245,23.105735
喜市多(大壮国际广场店),喜士多,黄埔区,开泰大道601号大壮国际广场F1层,113.468306,23.163547
喜市多(石牌喜朝便利店)(石牌东路店),喜士多,天河区,石牌东路朝阳北大街28号8-9号(近朝阳居委会),113.342898,23.13286
喜市多便利店(侨建店)(暂停营业),喜士多,海珠区,南洲路158号Hi City MALLF1层,113.295812,23.064287
喜市多(富星店),喜士多,天河区,冼村街道黄埔大道西161号富星商贸大厦东楼一层11号,113.325122,23.127684
喜市多(富力新天地店),喜士多,越秀区,广州大道中307号C栋110房之1号,113.314541,23.126928
喜市多便利店(梅花路店),喜士多,越秀区,梅花路46号首层(锦城花园),113.308932,23.13118
喜市多(华盈国际店),喜士多,白云区,同康路323号华盈国际F1层,113.226586,23.156384
喜市多便利店(泊雅湾店),喜士多,海珠区,广州塔南广场西南门西北110米,113.323225,23.103907
喜市多(四海城商业广场西区店),喜士多,番禺区,西区西南门旁(南村万博地铁站B口步行320米),113.350762,23.005322
喜市多(中山一路),喜士多,越秀区,中山一路48号(杨箕地铁站E1口步行80米),113.30667,23.127499
喜市多(南泰门市店),喜士多,海珠区,工业大道中福南新街20号福南新街小区,113.267528,23.079881
喜市多便利店(南方报社),喜士多,越秀区,广州大道中289号印报办公楼一楼108铺,113.314649,23.123967
喜市多(中洲中心店),喜士多,海珠区,新港东路1068号中洲中心北塔首层大堂,113.36944,23.097815
喜市多(汇金中心门市),喜士多,天河区,黄埔大道中660号汇金国际金融中心B栋106房瑞幸对面,113.379927,23.117735
喜市多(礼顿门市),喜士多,天河区,珠江新城华城路8号礼顿酒店1号商铺,113.317884,23.120886
喜市多,喜士多,荔湾区,芳兴路59号(滘口地铁站A2口旁),113.208036,23.112616
喜市多(名汇广场店),喜士多,白云区,齐富路31号名汇广场F1层,113.272121,23.194111
喜市多(生生广场店),喜士多,黄埔区,开创大道与新阳西路交叉口东160米,113.475502,23.172384
喜市多便利店(东英科技园店),喜士多,天河区,灵山东路3号101,113.42486,23.128737
喜市多(六运小区店)(装修中),喜士多,天河区,南街道体育西路50-1号107之二商铺,113.321794,23.130497
喜市多便利店(中铁诺德门市),喜士多,番禺区,诺德天街,113.352226,23.00987
喜市多(云升科学园),喜士多,黄埔区,光谱中路11号4栋107房,113.444765,23.160194
喜市多(五山科技广场店),喜士多,天河区,五山科技广场A座,113.347453,23.149182
喜市多便利店(领峯中心店),喜士多,黄埔区,科学大道与掬泉路交叉口东北100米,113.448829,23.16512
喜市多(金发门市),喜士多,黄埔区,科丰路39号17栋111房,113.460757,23.152798
喜市多(保利中达店),喜士多,天河区,兴安路15号保利中达广场F1层,113.329588,23.115481
喜市多(广州南站店),喜士多,番禺区,南站北路广州南站1F层(广州南站地铁站K口旁),113.26848,22.988977
喜市多便利店(纳金云店),喜士多,白云区,纳金云C座,113.320246,23.296668
喜市多(金融城绿地中心店),喜士多,天河区,黄埔大道中与科新路交叉口东南100米,113.381969,23.11754
喜市多便利店,喜士多,海珠区,新港东路69号102铺(磨碟沙地铁站B口步行400米),113.337875,23.099525
喜市多(信息港店)(暂停营业),喜士多,天河区,科韵路16号广州信息港F1层,113.373535,23.125667
喜市多(保利中心店),喜士多,天河区,临江大道5号保利中心F1层,113.318004,23.114478
喜市多(锦麟万博店),喜士多,番禺区,南村镇汇智一路6号锦麟万博B栋,113.345506,23.009734
喜市多(润多店),喜士多,南沙区,珠江街南江三路3号之1号,113.527955,22.723434
喜市多(才智广场店),喜士多,黄埔区,广汕四路120号101,113.455951,23.19484
喜市多广武,喜士多,天河区,石牌西路与石牌西横街交叉口东220米,113.340125,23.131975
喜市多(保利广场店),喜士多,海珠区,新港东路10号保利广场F1层,113.38422,23.099434
喜市多(数码港),喜士多,天河区,科韵路20号软银数码港大厦一楼,113.37386,23.123944
喜市多华广店(暂停营业),喜士多,花都区,学府路1号城市理工学院内商业街14号商铺,113.171725,23.433775
喜市多便利店(广纳院店),喜士多,黄埔区,纳科西三街1号北塔103单元,113.443826,23.118935
喜市多便利店(信基玥岛店),喜士多,番禺区,南塘大街与上漖大街交叉口西南120米,113.315125,23.036875
喜市多(广医五院店),喜士多,黄埔区,港湾西四街与港湾路交叉口北120米,113.445809,23.106618
喜市多便利店,喜士多,黄埔区,科珠路232号1栋,113.437218,23.170199
喜市多(保利罗兰国际店),喜士多,黄埔区,保利·罗兰国际1期,113.488596,23.172022
喜市多(增城南方医店),喜士多,增城区,南方医院增城院区东门西北90米,113.626805,23.15664
喜市多(新塘新天地门市),喜士多,增城区,新塘镇新新大道南8号碧发广场,113.608253,23.123402
喜市多便利店,喜士多,南沙区,人民医院东南门旁,113.410375,22.804625
喜市多(广州南沙万达广场店),喜士多,南沙区,双山大道3号广州南沙万达广场1F层,113.533834,22.794514
喜市多便利店,喜士多,黄埔区,新龙镇知明路82号一层大堂101室,113.573725,23.307675
喜市多便利店(广州白云国际机场T1-B224登机口店),喜士多,花都区,广州白云国际机场T1航站楼3F层B9305,113.300276,23.390775
沙贝南服务区喜市多,喜士多,白云区,创辉路与创誉街交叉口北40米,113.195097,23.15319
喜市多(中交汇通店),喜士多,南沙区,横沥镇汇通二街4号105房,113.521717,22.766757
喜市多(乡丰店),喜士多,增城区,荔城街太平村民委员会南侧臻味居旁,113.757275,23.249917
喜市多便利店(广州白云国际机场T1-B216登机口店),喜士多,花都区,广州白云国际机场T1航站楼3F层B9207,113.298248,23.387734
喜市多(南香山服务区花莞高速花都方向店),喜士多,增城区,南香山服务区东北侧,113.643879,23.22497
喜市多(广州白云国际机场T3交通中心店),喜士多,白云区,T3交通中心1层,113.320623,23.364827
喜市多便利店(广州白云国际机场T1航站楼店),喜士多,白云区,机场大道东888号广州白云国际机场T1航站楼3F层B9109,113.299325,23.383937
正果停车区西喜市多,喜士多,增城区,S2广河高速与正果停车区交叉口西南380米,113.90365,23.458899
喜市多便利店(广州白云国际机场T1航站楼店),喜士多,花都区,广州白云国际机场T1航站楼1F层,113.30089,23.386565
喜市多便利店(广州白云国际机场T2航站楼店),喜士多,花都区,广州白云国际机场T2航站楼3层,113.304374,23.397796
官桥服务区喜市多,喜士多,番禺区,官桥服务区与G0425广澳高速交叉口西北440米,113.457292,22.987825
官桥服务区喜市多,喜士多,番禺区,官桥服务区与G0425广澳高速交叉口北460米,113.459122,22.988999
中新服务区喜市多,喜士多,黄埔区,中新服务区东南侧,113.602617,23.310352
正果停车区东喜市多,喜士多,增城区,广河高速正果镇麻冚路段正果停车区,113.905181,23.458872
南香山服务区喜市多便利店,喜士多,增城区,南香山服务区西南侧,113.641686,23.224259
坚喜士多店,喜士多,花都区,京塘东一巷与京塘东街交叉口西北60米,113.425951,23.407603
丽星商店(阳光城·丽景湾店),喜士多,南沙区,阳光城·丽景湾西3门旁,113.542501,22.818704
喜市多24小时便利店(馨润·港荟店),喜士多,海珠区,东晓南路1295号之九101,113.297575,23.068135
天福,天福,白云区,石井大道59号(石井地铁站B口步行350米),113.232919,23.212771
天福,天福,越秀区,达道路与保乐路交叉口西南40米,113.302047,23.119079
天福(百灵商务楼店),天福,越秀区,六榕路143号百灵商务楼F1层,113.260479,23.130451
天福,天福,越秀区,三育路44号东山宾馆七号楼,113.299049,23.129279
天福(众鑫楼店),天福,越秀区,三育路23号,113.300929,23.129206
天福便利店(万通大厦店),天福,荔湾区,站前街道环市西路135号万通汇天福便利店,113.24943,23.147113
天福(芳草农讲所店),天福,越秀区,农讲所芳草街13号(农讲所地铁站C口步行200米),113.276877,23.127169
天福(西市新街店),天福,荔湾区,南源街道西市新街电业大院(西场地铁站C口步行230米),113.237579,23.136276
天福(柯子岭店),天福,白云区,柯子岭长安直街6巷20号之2号,113.273852,23.165789
天福便利店(天汇大厦店),天福,海珠区,江南东路31-49号(江南西地铁站C口步行180米),113.275282,23.097024
天福便利店(安华建材城店),天福,白云区,三元里大道677号,113.252975,23.166422
天福,天福,白云区,马务联和东街与马务东头西街交叉口西20米,113.261111,23.207428
天福,天福,番禺区,钟村宏达街1号,113.314905,22.974397
天福便利店(蓬莱路店),天福,荔湾区,蓬莱路68号(黄沙地铁站B口步行480米),113.237755,23.114212
天福(汇侨新城店),天福,白云区,汇侨新城南区北1门旁,113.256734,23.198417
天福(保利紫郡花园店),天福,白云区,新棠一巷保利紫云,113.251832,23.189668
天福便利店(百汇天地店),天福,海珠区,石溪村新业路68号百汇天地A座,113.284516,23.064059
天福(墩和店),天福,海珠区,敦和路171号之一(麦当劳旁边),113.316568,23.089501
天福(广州天河兴华店),天福,天河区,河水西街73号楼下,113.332838,23.170793
天福超市(石榴岗路店),天福,海珠区,石榴岗路18号大院d栋103-106铺,113.337032,23.087181
天福便利店(农林店),天福,越秀区,农林下路113号101室(区庄地铁站B1口步行50米),113.297383,23.132697
天福(瑞宝瑞南街店),天福,海珠区,瑞宝瑞南街与南洲北路交叉口北80米,113.294515,23.072077
天福便利店(第5607店),天福,越秀区,粤桂宾馆西门旁,113.252751,23.129378
天福超市(白云上胜店),天福,白云区,嘉禾望岗上胜东街18号,113.280314,23.233392
天福(广州海珠华顺店),天福,海珠区,红卫十社综合市场北门东南60米,113.334491,23.085248
天福(达成店),天福,白云区,广州大道北京溪中路20号京泉大厦F1层,113.328678,23.182007
天福(聚盈商务中心店),天福,天河区,聚盈商务中心,113.331451,23.169253
天福便利店(广州海珠南村路店),天福,海珠区,南村路与涌尾大街交叉口北160米,113.267962,23.103902
天福便利店(犀牛北街12666店),天福,越秀区,黄花岗街道犀牛北街463号广工大宿舍,113.299754,23.135648
天福便利店乐嘉路店,天福,白云区,棠景街道乐嘉路103号首层(乐嘉花园旁),113.255524,23.167428
天福便利店(荔湾广佛地铁龙溪站店),天福,荔湾区,裕海路与龙溪西路交叉口东南140米,113.195601,23.070634
天福便利店,天福,白云区,机场路91-92号润景广场,113.260238,23.16612
天福(大片路永旺店),天福,天河区,大片路18号,113.38067,23.131466
天福茗茶(广州塔店 ),天福,海珠区,金菊路38号,113.314263,23.100624
天福茗茶(世纪华都店 ),天福,天河区,龙口东路348号天城广场首层,113.340825,23.142225
天福便利店(东平北路店),天福,白云区,东平北路与横岗南街交叉口东40米,113.316471,23.255066
天福茗茶(机场路店 ),天福,白云区,机场路1806号,113.263865,23.204356
天福茗茶(中信广场店 ),天福,天河区,天河北路233号中信广场首场106铺,113.325106,23.142331
天福茗茶(棠下南街),天福,白云区,东一街与棠下南街交叉口北80米,113.255675,23.174425
天福茗茶(文化馆 ),天福,天河区,黄埔大道中282号102-103铺,113.360119,23.123378
天福茗茶(淘金店 ),天福,越秀区,淘金北路4号之5商铺,113.287962,23.14194
天福茗茶(天河汇景店 ),天福,天河区,汇景新城北路74号亚太盛汇负二层B2-12号,113.367752,23.149531
天福茗茶(福景店 ),天福,番禺区,桥南街福景路640-642号,113.357907,22.91829
天福茗茶(番禺繁华路店 ),天福,番禺区,市桥镇繁华路24-26号商铺,113.364166,22.941955
天福茗茶(新塘长风店 ),天福,增城区,新塘镇荔新十二路96号11幢110号,113.621056,23.14672
天福神农经典,天福,增城区,荔城街荔乡路35号,113.824932,23.286775
天福(嘉禾大岭东街),天福,白云区,大岭东街20号,113.276868,23.238647
天福(鹤边广发店),天福,白云区,鹤北街南侧,113.26828,23.2168
天福(高地大街店),天福,天河区,中山大道中88号(车陂地铁站D口步行90米),113.396938,23.124197
天福(幸福南路店),天福,番禺区,沙溪村幸福南路78号一层1-2号铺,113.332613,23.036253
天福便利店,天福,天河区,天平架陶庄路5号(天平架地铁站B口步行410米),113.320988,23.162598
天福便利店(棠下店),天福,白云区,棠景街道棠下东一街7号,113.255674,23.174494
天福(鹤龙四路店),天福,白云区,龙归墟祥云街11号(龙归地铁站B2口步行380米),113.302048,23.285625
天福便利店(金泽大厦店),天福,天河区,黄埔大道西201号金泽大厦F1层,113.328412,23.127801
天福便利店(海珠海联银珠公寓店),天福,海珠区,海联路8-4号1层,113.285416,23.101465
天福,天福,番禺区,东环街星漫一街4号铺,113.38098,22.969662
天福(桃园路店),天福,天河区,宦溪北边街21号综合楼之一101房,113.411954,23.116305
天福便利店(牛利岗大街店),天福,天河区,广州银利茶叶博览中心西南1门北150米,113.322788,23.16745
天福(大源岐山路店),天福,白云区,大源街岐山路51号,113.357492,23.242362
天福便利店2店(白云五号T5 MALL店),天福,白云区,云霄路353号白云五号T5 Mall西2门旁2F,113.264525,23.180675
天福便利店(鹤泰路店),天福,白云区,江夏火车路4号一铺,113.279731,23.213957
天福便利店(润洲城市广场店),天福,白云区,大源街大源田心东路北一街14号102铺,113.352563,23.249547
天福便利店(富颐华庭R区店),天福,黄埔区,富颐华庭R区,113.435128,23.119414
天福(龙洞直街店),天福,天河区,龙洞直街与龙洞东园一横路交叉口西南20米,113.368048,23.194627
天福便利店(广州龙洞广工8天连锁主题酒店店),天福,天河区,九龙商务酒店对面,113.364939,23.198556
天福(方圆时光店),天福,白云区,云城街机场路1630号方圆时光133房,113.264435,23.199808
天福(泰景花园店),天福,黄埔区,泰景中街21号,113.454362,23.110154
天福(锐港中心店),天福,黄埔区,大沙街道公园西路166号锐港中心天福便利店,113.451098,23.096749
天福(君御酒店店),天福,番禺区,上河坊西门旁(傍江地铁站D口步行280米),113.407359,22.938525
天福便利店(和丰国际大厦店),天福,海珠区,叠景路134和丰国际大厦F1层,113.312343,23.084637
天福便利店(黄埔人才家丰乐居社区店),天福,黄埔区,新阳东路丰乐居社区,113.48428,23.17224
天福便利店(岗贝花园店),天福,白云区,方井新街18之1-2岗贝花园,113.254852,23.179721
天福百货(福田路店),天福,番禺区,新城路北19巷2天福便利店旧水坑新城路北19巷2号,113.396063,22.958624
天福便利店(鹤泰路二横路店),天福,白云区,嘉禾鹤泰路10天福便利店,113.273145,23.214694
天福(五凤店),天福,海珠区,瑞宝街道瑞康路(五凤地铁站A口旁),113.295095,23.08098
天福(厦滘芒果店),天福,番禺区,洛铺街厦滘村沙滘中路8号首层,113.318261,23.04076
天福(南华路店),天福,番禺区,南村镇南山大道1号,113.392092,23.007596
天福便利店(新佰嘉广场店),天福,白云区,广州大道北2091号新佰嘉广场F1层,113.325357,23.198425
天福(天鹿花园店),天福,黄埔区,联和新村天鹿小区三街14号,113.428137,23.195724
天福便利店(广州番禺市桥街道捷进中路店),天福,番禺区,捷进中路112号,113.35378,22.948885
天福便利店(鹤北东街店),天福,白云区,鹤边村西周街4号美喆西饼(西周街店)鹤边西周北街2号,113.266512,23.219528
天福(广州南站店),天福,番禺区,南站北路广州南站1F层(广州南站地铁站J口旁),113.270081,22.98991
天福便利店(鹤边广发店),天福,白云区,鹤龙街鹤北街47号101,113.268249,23.220735
天福便利店(弈乐街15153店),天福,白云区,方圆·云山诗意一期,113.290014,23.218877
天福(昊信店),天福,番禺区,石碁大龙街碁龙西路10号昊信店,113.429639,22.954185
天福(中鼎珺合府店),天福,黄埔区,中鼎书院上城珺合府南门旁,113.446776,23.111263
天福便利店(盈丰路店),天福,海珠区,盈丰路17巷40号,113.3049,23.068563
天福(荔园新天地店),天福,番禺区,西环路1520号荔园新天地1F层,113.343786,22.920397
天福便利店(广州芳村国际用品城店),天福,荔湾区,芳村国际酒店用品城E座,113.251418,23.061237
天福便利店(7852店),天福,海珠区,南洲路583-10号,113.320206,23.061896
天福便利店(石榴岗路店),天福,海珠区,石榴岗路13号大院之二0五大酒店,113.33533,23.08981
天福(丰乐北路店),天福,黄埔区,丰乐北路101号横沙豫章苑2期首层商铺104铺,113.453103,23.111646
天福5886店,天福,白云区,东凤街38号天福(白云东平地铁站F口步行80米),113.316405,23.250686
天福,天福,增城区,锦绣新天地西1门旁,113.621445,23.118883
天福便利店(汉庭酒店店),天福,白云区,黄石西路457-459号101号,113.256242,23.205481
天福(沙圩西大街店),天福,番禺区,市桥街沙圩一云山大街三巷11号101,113.378589,22.941861
天福(中国软件CBD店),天福,黄埔区,冠群二街2号L115铺,113.476698,23.108337
天福便利店(丽庭居店),天福,白云区,同和街道同和路丽庭居A栋1铺,113.326546,23.197099
天福便利店(嘉禾10993店),天福,白云区,嘉禾街1号一楼101铺,113.27404,23.23019
天福(五羊茶叶城店),天福,番禺区,钟韵路8号五羊茶叶城,113.324888,22.971506
天福便利店(沙环东路店),天福,番禺区,大龙街沙环东路2路,113.428001,22.954023
天福便利店(远景路店),天福,白云区,远景路与康意街交叉口西北20米,113.258351,23.172694
天福(曙光田美夜市店),天福,花都区,新华街曙光路49号(11号铺),113.226549,23.395418
天福便利店(华为广州研发中心松南店),天福,白云区,青桥街八巷4号,113.221375,23.153893
天福便利店(广州天河中山顺景店),天福,天河区,前进街道中山大道中392号顺景大厦一楼一号商铺,113.409521,23.119416
天福便利店(石榴岗路店),天福,海珠区,赤岗街道石榴岗路台涌老祠堂,113.343104,23.0828
天福便利店(华南快速干线店),天福,天河区,石牌街道龙洞河陂大街19号,113.368453,23.197669
天福(番禺大石牌坊店),天福,番禺区,朝东路与富石路交叉口西40米,113.311666,23.021961
天福便利店(望楼岗路店),天福,番禺区,钟村街钟一村望楼岗路60号,113.321441,22.970473
天福便利店,天福,天河区,高唐路与新岑四路交叉口东南40米,113.403675,23.165125
天福便利店(王园路店),天福,天河区,黄村三里长庚1号之三101,113.411392,23.124644
天福便利店(金鹏大厦店),天福,天河区,建工路9号金鹏大厦F1层,113.372461,23.12342
天福便利店(钟兴街店),天福,白云区,钟兴中街5号(白云东平地铁站E口步行270米),113.317924,23.253375
天福,天福,花都区,迎宾大道与田美上庄三街交叉口西140米,113.224889,23.400838
天福便利店(东昇楼店),天福,天河区,车陂街道东圃陂东路9号,113.400202,23.116657
天福(广州南村华轩商务酒店店),天福,番禺区,钟村镇宏达路14号,113.396675,22.983799
天福便利店(绿茵庭园店),天福,番禺区,桥兴大道197号(市桥地铁站B口步行100米),113.361589,22.949704
天福便利店(旭景西街13267店),天福,天河区,车陂东路8号东灏商业大厦F1层,113.401862,23.125609
天福便利店(握山店),天福,白云区,同和街道握山南二路1号103铺,113.324749,23.194409
天福(龙洞北门店),天福,天河区,龙洞永胜西街二巷5号101,113.367779,23.202221
天福便利店(长湴西大街店),天福,天河区,长湴西街八巷2号一楼101房,113.34998,23.17152
天福便利店(怡园小区店),天福,黄埔区,下沙新村西大街2号(大沙地地铁站C口步行450米),113.449284,23.102544
天福(梅岗路店),天福,白云区,"梅岗路3号03铺.梅花园新村东门附近,十字路口处",113.319299,23.181053
天福便利店(金山谷店),天福,番禺区,沙头街小罗进村大街综合楼1号楼1号铺,113.345703,22.967265
天福便利店(白云太和朝亮店),天福,白云区,太和中路98号之二101铺,113.357141,23.293033
天福便利店(东胜北街),天福,白云区,合盈广场,113.281275,23.23813
天福便利店,天福,白云区,大源中路与大源田新路交叉口西200米,113.347361,23.247048
天福便利店(保税广场店),天福,黄埔区,青年路285号保税广场,113.531597,23.064976
天福(绿地城·泊语湾店),天福,黄埔区,凤语街1-35号绿地城·凤语湾,113.546865,23.319656
天福(沙头新村13032店),天福,番禺区,沙头新村一街104铺,113.348677,22.940712
米天福,天福,番禺区,厦滘幼儿园南门旁(厦滘地铁站A口步行390米),113.321257,23.040736
天福便利店(新置路店),天福,番禺区,植村西北二路悦凯中心东侧约170米,113.324807,23.014935
天福便利店(富石路15852店),天福,番禺区,长盛汇,113.31164,23.011466
天福便利店(东康街店),天福,天河区,东圃一横路13号汇宝商业中心B101,113.400895,23.121957
天福便利店(曼雅时尚酒店店),天福,番禺区,化龙镇龙源路133号化龙商业城首层自编112,113.455606,23.040085
天福便利店(番禺公园汇店),天福,番禺区,番禺区番禺公园汇一栋138铺天福便利店,113.365065,22.965054
天福便利店(弘大商贸创意园15912店),天福,黄埔区,源祥路与瑞发路交叉口北260米,113.497931,23.15817
天福便利店(中和西路店),天福,番禺区,城区大道103号,113.404765,22.944079
天福超市(穗石大道店),天福,番禺区,新造镇穗石联队治安队东门旁,113.412166,23.048831
天福便利店(汉溪路店),天福,番禺区,汉溪路与汉溪路新三街交叉口南100米,113.329168,22.987269
天福便利店(大学城广药路店),天福,番禺区,大学城广药路与大学城内环东路交叉口东北240米,113.399505,23.054408
天福便利店(盛年华公寓15783门店),天福,天河区,天坤一路101号盛年华寓,113.391336,23.135979
天福便利店,天福,白云区,高增一村上和路166号,113.306247,23.356741
天福便利店(赤沙店),天福,海珠区,赤沙工业园24号之二101,113.359475,23.084825
天福便利店(永泰新厅街五巷店),天福,白云区,集安街69号,113.30054,23.228099
天福便利店(同创誉城),天福,番禺区,南村镇鹤溪路2号之一4栋104,113.376107,23.008383
天福(公平街店),天福,增城区,新塘镇沙埔大道3号胜家堡酒庄旁,113.658542,23.16231
天福便利店(悦来酒店店),天福,番禺区,京兆商业大楼西南门旁,113.318233,23.022577
天福便利店(迎龙路店),天福,天河区,龙洞西街北庆里16号,113.367012,23.201208
天福便利店(高江同路店),天福,白云区,江高镇江同路一横2号,113.235194,23.273712
天福便利店(彭西大街店),天福,白云区,彭西大街与联边彭西仁厚巷交叉口西北100米,113.277935,23.230405
天福便利店(自在城市店),天福,番禺区,南村里仁洞兴业大道西926号(菜鸟驿站-),113.349153,22.989538
天福便利店(YOUCOIN·空间店),天福,白云区,启德路14号YOUCOIN·空间F1层,113.286549,23.228122
天福便利店(美馨小区),天福,白云区,美兴大厦东北门北110米,113.285325,23.232925
天福便利店(和汇新天地店),天福,白云区,人和镇鹤龙六路189号天虹广场,113.294525,23.336125
天福便利店(东平北路店),天福,白云区,东平北路15号,113.314352,23.253375
天福便利店(昇晖写字楼店),天福,天河区,中山大道中1095号昇晖大厦,113.423675,23.115325
天福便利店(长湴工业二路店),天福,白云区,长红长湴工业二路与长红茶元岗新村西街交叉口西北40米,113.300675,23.261646
天福便利店(金源路店),天福,番禺区,金源路与新地路交叉口西160米,113.386113,23.015839
天福便利店(港湾路店),天福,黄埔区,港湾路与黄埔东路辅路交叉口东南80米,113.448577,23.099573
天福便利店(东平东凤东路店),天福,白云区,东凤东路25号(白云东平地铁站F口步行280米),113.315219,23.252113
天福便利店(松园中富力店),天福,白云区,平沙村松园中街1巷1号之一,113.258224,23.247495
天福(湖山花园店),天福,增城区,广园快速路入口与凤凰城大道交叉口西北420米,113.568793,23.127062
天福便利店(雅居乐黄埔创新中心店),天福,黄埔区,创新中心横沙智慧大街12号1楼14栋一楼,113.457647,23.12194
天福便利店(嘉禾万嘉店),天福,白云区,农贸市场名城旁,113.276447,23.230732
天福便利店(新桥村15312店),天福,番禺区,西长塘大街与西长塘大街南五巷交叉口东40米,113.415911,22.950069
天福便利店(龙归花园店),天福,白云区,太和镇龙归永胜路1号龙归花园,113.305189,23.282506
天福便利店(黄庄南路店),天福,白云区,欧梵广场西侧70米,113.344083,23.237302
天福便利店(南岗佳兆业店),天福,黄埔区,盛凯大街18号,113.5494,23.102573
天福便利店(万科城市之光A区北门店),天福,黄埔区,黄埔区广州市悦容二街6号108房,113.467275,23.101825
1天福(星荟店),天福,番禺区,化龙镇翠湖工业大道11号星传汇,113.446675,23.046575
天福便利店(人和富和店),天福,白云区,人和汇商业广场北门旁(人和地铁站C2口步行180米),113.297285,23.334596
天福便利店(石洲东路15725店),天福,番禺区,广州城投足球公园,113.287275,22.987475
天福便利店(大源三亩三后街店),天福,白云区,大源上西路三亩三后街1号,113.356632,23.247518
天福便利店(尚东尚筑15085店),天福,番禺区,泰兴路133号君御酒店旁(傍江地铁站D口步行430米),113.40497,22.937514
天福便利店(罗岗广场西北),天福,白云区,嘉禾望岗百花岭街南街三巷一号,113.2712,23.245254
天福便利店(沙市下街店),天福,番禺区,南村村沙市下街,113.394924,23.008915
天福车行(茶岗路店),天福,番禺区,南村镇兴业大道1137号博技电动三轮车,113.389224,23.004023
天福便利店(里仁洞村新兴大道店),天福,番禺区,万利商业园D座,113.347653,22.996485
天福便利店(新地路店),天福,番禺区,南村镇乐交坊10号101(板桥地铁站A口步行240米),113.388424,23.014277
天福便利店(官堂双桂路店),天福,番禺区,南村双桂路五巷1号102铺,113.349265,23.013672
天福便利店5633店,天福,白云区,太和镇夏良第一综合市场内B1栋11号铺,113.301574,23.289574
天福便利店(广州兴森快捷电路科技有限公司店),天福,黄埔区,广州兴森快捷电路科技有限公司北门西60米,113.462906,23.159593
天福便利店(解放庄店),天福,白云区,解放庄路26号103铺,113.292288,23.215803
天福便利店(西环路店),天福,番禺区,浴乎路2号,113.346148,22.921843
添福超市(广场路店),天福,番禺区,东林梁公祠西北门西南90米,113.374293,23.051723
天福(阳光城·澜悦店),天福,南沙区,阳光城·澜悦西北1门旁,113.540749,22.812394
天福超市,天福,白云区,新科杨苑街一巷与新科科甲杨苑直街交叉口东80米,113.287775,23.255625
天福便利店(嘉禾望岗店),天福,白云区,嘉禾望岗百花岭南街三巷一号,113.27418,23.236505
天福便利店(广州番禺新桥村泰安路口店),天福,番禺区,市莲路新桥东公交站新桥村泰安路口192号,113.41978,22.951503
